~VERSION INFORMATION
VERS.           2.0  :CWLS LOG ASCII STANDARD - 2.0
WRAP.           NO   :One line per depth step
~WELL INFORMATION
STRT.m                          3298.00000: START DEPTH
STOP.m                          3581.00000: STOP DEPTH
STEP.m                             0.10000: STEP
NULL.                           -999.25000: NULL VALUE
COMP.                       Siam Moeco Ltd: COMPANY
WELL.                                  A04: WELL
FLD .                               Burapa: FIELD
LOC .                                     : LOCATION
PROV.                                     : PROVINCE
UWI .                                     : UNIQUE WELL ID
SRVC.                  READ Cased Hole Ltd: SERVICE COMPANY
DATE.                           04-24-2015: DATE
~CURVE INFORMATION
#MNEM.UNIT                                   Curve Description
#------------                              ----------------------
DEPT.m                                    : curve   1    Depth
CCL.                                      : curve   2    CCL
CWH.cps                                   : curve   3    Capacitance
FDIDEN.g/cc                               : curve   4    Density
QGZT.B/D                                  : curve   5    Gas rate
QOZT.B/D                                  : curve   6    Oil rate
QP.psia                                   : curve   7    Pressure
TEMP.°C                                   : curve   8    Temperature
VAILS.M/MN                                : curve   9    Apparent velocity
~PARAMETER INFORMATION
~OTHER INFORMATION
~ASCII LOG DATA
# ...
  3463.90000    1.76215    3.27477    0.71011    0.00000   28.58850  2969.73186  110.20451    1.74664
  3464.00000    1.76854    3.27449    0.71106    0.00000   28.58850  2969.79199  110.22711    1.81106
  3464.10000    1.77173    3.27430    0.70965    0.00000   28.58850  2969.92955  110.23099    1.82188
  3464.20000    1.76414    3.27520    0.70717    0.00000   28.58850  2970.01382  110.25278    1.79859
  3464.30000    1.77153    3.27418    0.70908    0.00000   28.58850  2970.11505  110.22777    1.74396
  3464.40000    1.76597    3.27484    0.71047    0.00000   28.58850  2970.15342  110.23070    1.63648
  3464.50000    1.76982    3.27448    0.71005    0.00000   28.58850  2970.21110  110.24505    1.51489
  3464.60000    1.77565    3.27447    0.70798    0.00000   28.58850  2970.27257  110.24016    1.37813
  3464.70000    1.77013    3.27444    0.70859    0.00000   28.58850  2970.32242  110.25146    1.23840
  3464.80000    1.76673    3.27449    0.70874    0.00000   28.58850  2970.37026  110.24516    1.10848
  3464.90000    1.76960    3.27464    0.70803    0.00000   28.58850  2970.49799  110.23606    0.99109
  3465.00000    1.76463    3.27452    0.70893    0.00000   28.58850  2970.57768  110.25850    0.90722
  3465.10000    1.76609    3.27473    0.70799    0.00000   28.58850  2970.65978  110.25850    0.83984
  3465.20000    1.77934    3.27478    0.71001    0.00000   28.58850  2970.72885  110.23936    0.79275
  3465.30000    1.77263    3.27454    0.70913    0.00000   28.58850  2970.82720  110.25850    0.76152
  3465.40000    1.77168    3.27470    0.71025    0.00000   28.58850  2970.92914  110.27846    0.73158
  3465.50000    1.76958    3.27464    0.71127    0.00000   28.58850  2970.99895  110.26213    0.70018
  3465.60000    1.77335    3.27475    0.71026    0.00000   28.58850  2971.04562  110.26085    0.64856
  3465.70000    1.77239    3.27471    0.70804    0.00000   28.58850  2971.17597  110.26398    0.57923
  3465.80000    1.77085    3.27451    0.70956    0.00000   28.58850  2971.30319  110.25850    0.48062
  3465.90000    1.76592    3.27466    0.70831    0.00000   28.58850  2971.37770  110.28930    0.34450
  3466.00000    1.76574    3.27472    0.70844    0.00000   28.58850  2971.49266  110.27433    0.18988
  3466.10000    1.76470    3.27475    0.70805    0.00000   28.58850  2971.55392  110.27141    0.01177
  3466.20000    1.77677    3.27470    0.70863    0.00000   28.58850  2971.63889  110.29004   -0.17049
  3466.30000    1.77568    3.27510    0.70927    0.00000   28.58850  2971.71769  110.27029   -0.34759
  3466.40000    1.76757    3.27468    0.70814    0.00000   28.58850  2971.78918  110.29153   -0.50447
  3466.50000    1.78152    3.27447    0.71071    0.00000   28.58850  2971.90812  110.29830   -0.62127
  3466.60000    1.78152    3.27483    0.71117    0.00000   28.58850  2971.98730  110.28148   -0.70760
  3466.70000    1.78152    3.27458    0.70936    0.00000   28.58850  2971.98730  110.30256   -0.73451
  3466.80000    1.78152    3.27478    0.70688    0.00000   28.58850  2971.98730  110.29025   -0.71267
  3466.90000    1.77655    3.27497    0.70878    0.00000   28.58850  2971.98730  110.29691   -0.65916
  3467.00000    1.76653    3.27477    0.71010    0.00000   28.58850  2972.06990  110.29031   -0.55938
  3467.10000    1.76964    3.27471    0.70992    0.00000   28.58850  2972.31945  110.29233   -0.44379
  3467.20000    1.77593    3.27478    0.70806    0.00000   28.58850  2972.40136  110.31448   -0.32046
  3467.30000    1.76203    3.27471    0.70978    0.00000   28.58850  2972.51984  110.29551   -0.20483
  3467.40000    1.75746    3.27519    0.70881    0.00000   28.58850  2972.58181  110.31418   -0.11044
  3467.50000    1.77498    3.27466    0.70731    0.00000   28.58850  2972.63374  110.29644   -0.03382
  3467.60000    1.76990    3.27472    0.70842    0.00000   28.58850  2972.70644  110.32245    0.00116
  3467.70000    1.75920    3.27540    0.70920    0.00000   28.58850  2972.78947  110.32810    0.01209
  3467.80000    1.77799    3.27448    0.71074    0.00000   28.58850  2972.85283  110.29085    0.00363
  3467.90000    1.76504    3.27473    0.70853    0.00000   28.58850  2972.99790  110.32192   -0.01952
  3468.00000    1.77401    3.27533    0.70887    0.00000   28.58850  2973.13873  110.32710   -0.03301
  3468.10000    1.77048    3.27478    0.70788    0.00000   28.58850  2973.29394  110.32838   -0.03757
  3468.20000    1.78001    3.27486    0.70683    0.00000   28.58850  2973.34169  110.32432    0.00364
  3468.30000    1.77717    3.27497    0.70872    0.00000   28.58850  2973.41323  110.31860    0.07531
  3468.40000    1.76226    3.27478    0.71045    0.00000   28.58850  2973.49625  110.32793    0.17970
  3468.50000    1.76086    3.27490    0.71070    0.00000   28.58850  2973.58791  110.32710    0.34429
  3468.60000    1.76724    3.27505    0.71064    0.00000   28.58850  2973.66946  110.34688    0.53155
  3468.70000    1.77266    3.27528    0.70989    0.00000   28.58850  2973.72653  110.34122    0.74445
  3468.80000    1.76528    3.27484    0.70882    0.00000   28.58850  2973.77793  110.32736    0.96980
  3468.90000    1.76998    3.27503    0.71012    0.00000   28.58850  2973.91947  110.33878    1.18812
  3469.00000    1.76700    3.27482    0.71107    0.00000   28.58850  2974.01782  110.34017    1.39438
  3469.10000    1.77561    3.27535    0.71028    0.00000   28.58850  2974.17377  110.34860    1.55758
  3469.20000    1.77145    3.27525    0.70812    0.00000   28.58850  2974.18910  110.35302    1.69111
  3469.30000    1.77276    3.27537    0.70927    0.00000   28.58850  2974.26858  110.34329    1.78248
  3469.40000    1.77161    3.27555    0.70806    0.00000   28.58850  2974.34889  110.33860    1.82019
  3469.50000    1.77195    3.27555    0.70861    0.00000   28.58850  2974.44239  110.33860    1.83275
  3469.60000    1.77667    3.27555    0.71097    0.00000   28.58850  2974.53756  110.33860    1.81358
  3469.70000    1.76479    3.27555    0.71057    0.00000   28.58850  2974.65907  110.33876    1.78084
  3469.80000    1.77457    3.27527    0.70806    0.00000   28.58850  2974.71922  110.35083    1.74842
  3469.90000    1.76984    3.27500    0.70936    0.00000   28.58850  2974.81352  110.37860    1.72533
  3470.00000    1.76387    3.27558    0.70715    0.00000   28.58850  2974.93276  110.36029    1.72865
  3470.10000    1.76773    3.27490    0.70623    0.00000   28.58850  2975.06802  110.36593    1.75019
  3470.20000    1.77454    3.27541    0.70429    0.00000   28.58850  2975.16899  110.36877    1.80292
  3470.30000    1.77656    3.27483    0.70448    0.00000   28.58850  2975.26627  110.35005    1.88040
  3470.40000    1.76414    3.27563    0.70956    0.00000   28.58850  2975.39438  110.38081    1.97024
  3470.50000    1.76922    3.27512    0.70944    0.00000   28.58850  2975.49753  110.37912    2.07127
  3470.60000    1.77892    3.27519    0.70770    0.00000   28.58850  2975.61809  110.35888    2.16605
  3470.70000    1.78462    3.27550    0.70884    0.00000   28.58850  2975.68564  110.40228    2.25188
  3470.80000    1.76762    3.27509    0.71024    0.00000   28.58850  2975.80014  110.36915    2.30648
  3470.90000    1.76939    3.27474    0.70900    0.00000   28.58850  2975.90909  110.38608    2.32858
  3471.00000    1.77310    3.27594    0.71005    0.00000   28.58850  2976.01883  110.39321    2.32659
  3471.10000    1.77246    3.27506    0.70805    0.00000   28.58850  2976.13087  110.37961    2.28161
  3471.20000    1.77496    3.27538    0.70933    0.00000   28.58850  2976.24063  110.39454    2.21504
  3471.30000    1.76970    3.27465    0.70839    0.00000   28.58850  2976.29740  110.38476    2.13338
  3471.40000    1.76769    3.27544    0.70815    0.00000   28.58850  2976.40335  110.39916    2.04275
  3471.50000    1.76420    3.27500    0.70815    0.00000   28.58850  2976.45291  110.37394    1.96156
  3471.60000    1.76943    3.27556    0.70798    0.00000   28.58850  2976.52170  110.42634    1.88926
  3471.70000    1.76843    3.27492    0.70979    0.00000   28.58850  2976.60763  110.38898    1.85238
