~VERSION INFORMATION
VERS.           2.0  :CWLS LOG ASCII STANDARD - 2.0
WRAP.           NO   :One line per depth step
~WELL INFORMATION
STRT.m                          3298.00000: START DEPTH
STOP.m                          3581.00000: STOP DEPTH
STEP.m                             0.10000: STEP
NULL.                           -999.25000: NULL VALUE
COMP.                       Siam Moeco Ltd: COMPANY
WELL.                                  A04: WELL
FLD .                               Burapa: FIELD
LOC .                                     : LOCATION
PROV.                                     : PROVINCE
UWI .                                     : UNIQUE WELL ID
SRVC.                  READ Cased Hole Ltd: SERVICE COMPANY
DATE.                           04-24-2015: DATE
~CURVE INFORMATION
#MNEM.UNIT                                   Curve Description
#------------                              ----------------------
DEPT.m                                    : curve   1    Depth
CCL.                                      : curve   2    CCL
CWH.cps                                   : curve   3    Capacitance
FDIDEN.g/cc                               : curve   4    Density
QGZT.B/D                                  : curve   5    Gas rate
QOZT.B/D                                  : curve   6    Oil rate
QP.psia                                   : curve   7    Pressure
TEMP.°C                                   : curve   8    Temperature
VAILS.M/MN                                : curve   9    Apparent velocity
~PARAMETER INFORMATION
~OTHER INFORMATION
~ASCII LOG DATA
# ...
  3574.50000    1.77184    2.67545    1.02077    0.00000    0.00000  3104.32885  112.51444   -1.72661
  3574.60000    1.76116    2.67563    1.01749    0.00000    0.00000  3104.50569  112.52152   -1.79414
  3574.70000    1.74773    2.67497    1.01835    0.00000    0.00000  3104.65577  112.51308   -1.85428
  3574.80000    1.75588    2.67550    1.02219    0.00000    0.00000  3104.68716  112.51570   -1.90647
  3574.90000    1.76608    2.67543    1.02176    0.00000    0.00000  3104.78308  112.52014   -1.94477
  3575.00000    1.76753    2.67500    1.01966    0.00000    0.00000  3104.98307  112.51320   -1.97704
  3575.10000    1.77581    2.67565    1.02076    0.00000    0.00000  3105.06956  112.53744   -2.00237
  3575.20000    1.77556    2.67527    1.02246    0.00000    0.00000  3105.27939  112.51511   -2.01969
  3575.30000    1.77276    2.67507    1.02004    0.00000    0.00000  3105.40536  112.52176   -2.03504
  3575.40000    1.78184    2.67565    1.02321    0.00000    0.00000  3105.44545  112.54356   -2.04849
  3575.50000    1.77343    2.67540    1.02112    0.00000    0.00000  3105.59173  112.53653   -2.06074
  3575.60000    1.77005    2.67537    1.01992    0.00000    0.00000  3105.84177  112.52940   -2.07430
  3575.70000    1.77194    2.67515    1.02181    0.00000    0.00000  3105.99118  112.55692   -2.09044
  3575.80000    1.76017    2.67536    1.01946    0.00000    0.00000  3106.10816  112.54580   -2.11172
  3575.90000    1.76234    2.67575    1.01509    0.00000    0.00000  3106.31181  112.52904   -2.13419
  3576.00000    1.77311    2.67482    1.01566    0.00000    0.00000  3106.32649  112.54293   -2.15709
  3576.10000    1.77465    2.67547    1.01952    0.00000    0.00000  3106.38895  112.55118   -2.18912
  3576.20000    1.75883    2.67532    1.02406    0.00000    0.00000  3106.61854  112.55780   -2.22428
  3576.30000    1.77874    2.67605    1.02086    0.00000    0.00000  3106.83033  112.55780   -2.26166
  3576.40000    1.77264    2.67515    1.01481    0.00000    0.00000  3106.94222  112.57230   -2.29996
  3576.50000    1.77270    2.67540    1.01649    0.00000    0.00000  3107.09547  112.54899   -2.33728
  3576.60000    1.77547    2.67558    1.02301    0.00000    0.00000  3107.21988  112.57428   -2.37063
  3576.70000    1.76868    2.67523    1.02210    0.00000    0.00000  3107.30325  112.57401   -2.39527
  3576.80000    1.77493    2.67536    1.02050    0.00000    0.00000  3107.45176  112.56864   -2.41282
  3576.90000    1.77070    2.67556    1.02207    0.00000    0.00000  3107.52532  112.58014   -2.41555
  3577.00000    1.75870    2.67520    1.02539    0.00000    0.00000  3107.71752  112.58923   -2.40293
  3577.10000    1.76346    2.67572    1.02286    0.00000    0.00000  3107.94370  112.57280   -2.37961
  3577.20000    1.75203    2.67500    1.01991    0.00000    0.00000  3108.00502  112.57667   -2.33799
  3577.30000    1.75296    2.67577    1.01959    0.00000    0.00000  3108.05698  112.60290   -2.30914
  3577.40000    1.75916    2.67543    1.02028    0.00000    0.00000  3108.12702  112.59860   -2.28926
  3577.50000    1.76582    2.67549    1.02101    0.00000    0.00000  3108.36025  112.60325   -2.28273
  3577.60000    1.76930    2.67495    1.02375    0.00000    0.00000  3108.59051  112.60290   -2.28440
  3577.70000    1.77516    2.67565    1.02103    0.00000    0.00000  3108.74945  112.60454   -2.29213
  3577.80000    1.77010    2.67530    1.02133    0.00000    0.00000  3108.84007  112.59763   -2.30727
  3577.90000    1.78527    2.67575    1.02200    0.00000    0.00000  3108.94205  112.63126   -2.32328
  3578.00000    1.77512    2.67542    1.02012    0.00000    0.00000  3108.99315  112.62607   -2.33993
  3578.10000    1.77778    2.67555    1.01933    0.00000    0.00000  3109.20041  112.61867   -2.35565
  3578.20000    1.78278    2.67505    1.02147    0.00000    0.00000  3109.38238  112.63223   -2.36955
  3578.30000 -999.25000    2.67574    1.02181    0.00000    0.00000  3109.53696  112.63154   -2.38177
  3578.40000 -999.25000    2.67541    1.02133    0.00000    0.00000 -999.25000  112.63235   -2.38604
  3578.50000 -999.25000    2.67562    1.02115    0.00000    0.00000 -999.25000  112.63371   -2.41749
  3578.60000 -999.25000    2.67565 -999.25000    0.00000    0.00000 -999.25000  112.65932   -2.47815
  3578.70000 -999.25000    2.67532 -999.25000 -999.25000 -999.25000 -999.25000  112.64935 -999.25000
  3578.80000 -999.25000    2.67581 -999.25000 -999.25000 -999.25000 -999.25000  112.66130 -999.25000
  3578.90000 -999.25000    2.67491 -999.25000 -999.25000 -999.25000 -999.25000  112.66282 -999.25000
  3579.00000 -999.25000    2.67591 -999.25000 -999.25000 -999.25000 -999.25000  112.66357 -999.25000
  3579.10000 -999.25000    2.67514 -999.25000 -999.25000 -999.25000 -999.25000  112.68571 -999.25000
  3579.20000 -999.25000    2.67565 -999.25000 -999.25000 -999.25000 -999.25000  112.66310 -999.25000
  3579.30000 -999.25000    2.67547 -999.25000 -999.25000 -999.25000 -999.25000  112.67688 -999.25000
  3579.40000 -999.25000    2.67554 -999.25000 -999.25000 -999.25000 -999.25000  112.69381 -999.25000
  3579.50000 -999.25000    2.67566 -999.25000 -999.25000 -999.25000 -999.25000  112.69310 -999.25000
  3579.60000 -999.25000    2.67552 -999.25000 -999.25000 -999.25000 -999.25000  112.69653 -999.25000
  3579.70000 -999.25000    2.67530 -999.25000 -999.25000 -999.25000 -999.25000  112.69310 -999.25000
  3579.80000 -999.25000    2.67577 -999.25000 -999.25000 -999.25000 -999.25000  112.72413 -999.25000
  3579.90000 -999.25000    2.67572 -999.25000 -999.25000 -999.25000 -999.25000  112.70088 -999.25000
  3580.00000 -999.25000    2.67552 -999.25000 -999.25000 -999.25000 -999.25000  112.72637 -999.25000
  3580.10000 -999.25000    2.67572 -999.25000 -999.25000 -999.25000 -999.25000  112.72416 -999.25000
  3580.20000 -999.25000    2.67539 -999.25000 -999.25000 -999.25000 -999.25000  112.72340 -999.25000
  3580.30000 -999.25000    2.67510 -999.25000 -999.25000 -999.25000 -999.25000  112.72940 -999.25000
  3580.40000 -999.25000    2.67553 -999.25000 -999.25000 -999.25000 -999.25000  112.74768 -999.25000
  3580.50000 -999.25000    2.67577 -999.25000 -999.25000 -999.25000 -999.25000  112.72985 -999.25000
  3580.60000 -999.25000    2.67565 -999.25000 -999.25000 -999.25000 -999.25000  112.75497 -999.25000
  3580.70000 -999.25000    2.67514 -999.25000 -999.25000 -999.25000 -999.25000  112.73330 -999.25000
  3580.80000 -999.25000    2.67607 -999.25000 -999.25000 -999.25000 -999.25000  112.76352 -999.25000
  3580.90000 -999.25000    2.67547 -999.25000 -999.25000 -999.25000 -999.25000  112.75666 -999.25000
  3581.00000 -999.25000    2.67514 -999.25000 -999.25000 -999.25000 -999.25000  112.74983 -999.25000
