~VERSION INFORMATION
VERS.           2.0  :CWLS LOG ASCII STANDARD - 2.0
WRAP.           NO   :One line per depth step
~WELL INFORMATION
STRT.m                          3298.00000: START DEPTH
STOP.m                          3581.00000: STOP DEPTH
STEP.m                             0.10000: STEP
NULL.                           -999.25000: NULL VALUE
COMP.                       Siam Moeco Ltd: COMPANY
WELL.                                  A04: WELL
FLD .                               Burapa: FIELD
LOC .                                     : LOCATION
PROV.                                     : PROVINCE
UWI .                                     : UNIQUE WELL ID
SRVC.                  READ Cased Hole Ltd: SERVICE COMPANY
DATE.                           04-24-2015: DATE
~CURVE INFORMATION
#MNEM.UNIT                                   Curve Description
#------------                              ----------------------
DEPT.m                                    : curve   1    Depth
CCL.                                      : curve   2    CCL
CWH.cps                                   : curve   3    Capacitance
FDIDEN.g/cc                               : curve   4    Density
QGZT.B/D                                  : curve   5    Gas rate
QOZT.B/D                                  : curve   6    Oil rate
QP.psia                                   : curve   7    Pressure
TEMP.°C                                   : curve   8    Temperature
VAILS.M/MN                                : curve   9    Apparent velocity
~PARAMETER INFORMATION
~OTHER INFORMATION
~ASCII LOG DATA
# ...
  3503.40000    1.78642    2.70130    0.92981    0.00000   28.58850  3011.23353  111.17382    0.51644
  3503.50000    1.77752    2.70172    0.92577    0.00000   28.58850  3011.32995  111.18100    0.47068
  3503.60000    1.77714    2.70055    0.92818    0.00000   28.58850  3011.43877  111.15488    0.40691
  3503.70000    1.77539    2.69859    0.92982    0.00000   28.58850  3011.52830  111.19359    0.34479
  3503.80000    1.77224    2.69765    0.92873    0.00000   28.58850  3011.67393  111.18747    0.29327
  3503.90000    1.76578    2.69559    0.93264    0.00000   28.58850  3011.84305  111.19155    0.27777
  3504.00000    1.76822    2.69439    0.93243    0.00000   28.58850  3011.97892  111.18267    0.28910
  3504.10000    1.76815    2.69266    0.92626    0.00000   28.58850  3012.10218  111.18739    0.34609
  3504.20000    1.76327    2.69178    0.91424    0.00000   28.58850  3012.24665  111.20100    0.45269
  3504.30000    1.76521    2.69017    0.90104    0.00000   28.58850  3012.42743  111.19255    0.58609
  3504.40000    1.76073    2.68982    0.89509    0.00000   28.58850  3012.55592  111.21248    0.75492
  3504.50000    1.77033    2.68957    0.88969    0.00000   28.58850  3012.69597  111.19362    0.93453
  3504.60000    1.76967    2.69399    0.88900    0.00000   28.58850  3012.87829  111.21880    1.11320
  3504.70000    1.76433    2.72303    0.89022    0.00000   28.58850  3012.90215  111.19671    1.27173
  3504.80000    1.76723    2.73462    0.90001    0.00000   28.58850  3012.96853  111.22537    1.38864
  3504.90000    1.73683    2.72955    0.91384    0.00000   28.58850  3013.15603  111.22066    1.47365
  3505.00000    1.78497    2.72034    0.92057    0.00000   28.58850  3013.32335  111.19450    1.49400
  3505.10000    1.78201    2.71391    0.92257    0.00000   28.58850  3013.44348  111.21978    1.46505
  3505.20000    1.77401    2.70919    0.91958    0.00000   28.58850  3013.61517  111.22725    1.40163
  3505.30000    1.77264    2.70505    0.91987    0.00000   28.58850  3013.74418  111.22711    1.28803
  3505.40000    1.77674    2.70176    0.92392    0.00000   28.58850  3013.86987  111.23646    1.16101
  3505.50000    1.77419    2.69751    0.92600    0.00000   28.58850  3013.95004  111.22685    1.02641
  3505.60000    1.77162    2.69611    0.92561    0.00000   28.58850  3014.01401  111.22564    0.90643
  3505.70000    1.76476    2.69479    0.92685    0.00000   28.58850  3014.19215  111.24102    0.81256
  3505.80000    1.76811    2.69289    0.92726    0.00000   28.58850  3014.41532  111.24327    0.74150
  3505.90000    1.76110    2.69190    0.92689    0.00000   28.58850  3014.56371  111.22992    0.72671
  3506.00000    1.77110    2.69308    0.92007    0.00000   28.58850  3014.59788  111.25163    0.74398
  3506.10000    1.76722    2.69425    0.91648    0.00000   28.58850  3014.70400  111.25370    0.79071
  3506.20000    1.76304    2.69747    0.91485    0.00000   28.58850  3014.87512  111.21986    0.88018
  3506.30000    1.76976    2.69807    0.91144    0.00000   28.58850  3015.08492  111.25289    0.97651
  3506.40000    1.76959    2.69644    0.91168    0.00000   28.58850  3015.16872  111.25315    1.08021
  3506.50000    1.77151    2.69446    0.91133    0.00000   28.58850  3015.30957  111.27895    1.16252
  3506.60000    1.76751    2.69382    0.91372    0.00000   28.58850  3015.53526  111.25370    1.22216
  3506.70000    1.76128    2.69543    0.92039    0.00000   28.58850  3015.64960  111.25629    1.25425
  3506.80000    1.76259    2.69842    0.92707    0.00000   28.58850  3015.64548  111.27794    1.23237
  3506.90000    1.75512    2.70148    0.92562    0.00000   28.58850  3015.72933  111.25908    1.18597
  3507.00000    1.76405    2.70247    0.92233    0.00000   28.58850  3015.90142  111.26900    1.10988
  3507.10000    1.76861    2.70241    0.92064    0.00000   28.58850  3016.08093  111.28281    1.00838
  3507.20000    1.76533    2.70121    0.91915    0.00000   28.58850  3016.22168  111.27621    0.90368
  3507.30000    1.76970    2.69961    0.91946    0.00000   28.58850  3016.34472  111.26820    0.79929
  3507.40000    1.76929    2.69625    0.92665    0.00000   28.58850  3016.49972  111.28620    0.71714
  3507.50000    1.77006    2.69419    0.93131    0.00000   28.58850  3016.61290  111.28761    0.65410
  3507.60000    1.76844    2.69180    0.92942    0.00000   28.58850  3016.75249  111.28335    0.62255
  3507.70000    1.76954    2.69086    0.92330    0.00000   28.58850  3016.83268  111.28800    0.63022
  3507.80000    1.76811    2.68937    0.91175    0.00000   28.58850  3016.95968  111.28087    0.65683
  3507.90000    1.77061    2.68877    0.90695    0.00000   28.58850  3017.04771  111.30544    0.70705
  3508.00000    1.77105    2.68809    0.90299    0.00000   28.58850  3017.19015  111.29757    0.76274
  3508.10000    1.77138    2.69000    0.89837    0.00000   28.58850  3017.35243  111.29870    0.81380
  3508.20000    1.76719    2.69865    0.89909    0.00000   28.58850  3017.45675  111.29136    0.84505
  3508.30000    1.76612    2.70599    0.90337    0.00000   28.58850  3017.60223  111.29825    0.83874
  3508.40000    1.76946    2.70799    0.90605    0.00000   28.58850  3017.79184  111.31382    0.80478
  3508.50000    1.76780    2.70799    0.91167    0.00000   28.58850  3017.87905  111.31994    0.71875
  3508.60000    1.77055    2.70666    0.92027    0.00000   28.58850  3018.00145  111.31648    0.59588
  3508.70000    1.77200    2.70347    0.92328    0.00000   28.58850  3018.14255  111.31884    0.45196
  3508.80000    1.76838    2.70003    0.92402    0.00000   28.58850  3018.22030  111.31412    0.28792
  3508.90000    1.77077    2.69744    0.92945    0.00000   28.58850  3018.30407  111.31465    0.12745
  3509.00000    1.77012    2.69659    0.93392    0.00000   28.58850  3018.48138  111.31945   -0.02596
  3509.10000    1.77767    2.69611    0.93089    0.00000   28.58850  3018.58392  111.33918   -0.14285
  3509.20000    1.77023    2.69632    0.92628    0.00000   28.58850  3018.70931  111.32068   -0.21978
  3509.30000    1.76396    2.69636    0.93097    0.00000   28.58850  3018.88301  111.32103   -0.26383
  3509.40000    1.77643    2.69873    0.93278    0.00000   28.58850  3019.09164  111.34032   -0.23538
  3509.50000    1.76953    2.70145    0.93116    0.00000   28.58850  3019.13770  111.32816   -0.16636
  3509.60000    1.77127    2.70406    0.93004    0.00000   28.58850  3019.19578  111.32895   -0.06386
  3509.70000    1.75966    2.70241    0.92399    0.00000   28.58850  3019.32465  111.35487    0.08114
  3509.80000    1.77632    2.69969    0.92040    0.00000   28.58850  3019.50643  111.34613    0.22853
  3509.90000    1.76171    2.69763    0.91760    0.00000   28.58850  3019.59297  111.34976    0.37805
  3510.00000    1.77065    2.69925    0.91833    0.00000   28.58850  3019.71198  111.34238    0.50150
  3510.10000    1.77783    2.70307    0.91985    0.00000   28.58850  3019.83815  111.34996    0.60024
  3510.20000    1.78239    2.70581    0.92258    0.00000   28.58850  3019.93662  111.35067    0.67242
  3510.30000    1.77740    2.70549    0.92674    0.00000   28.58850  3020.12820  111.34724    0.68987
  3510.40000    1.77726    2.70300    0.92484    0.00000   28.58850  3020.30124  111.35855    0.68520
  3510.50000    1.76514    2.69995    0.91992    0.00000   28.58850  3020.42145  111.36441    0.65537
  3510.60000    1.76283    2.69858    0.90935    0.00000   28.58850  3020.51907  111.35018    0.61151
  3510.70000    1.76267    2.69582    0.90115    0.00000   28.58850  3020.56241  111.40483    0.57314
  3510.80000    1.76797    2.69487    0.90306    0.00000   28.58850  3020.63882  111.35960    0.54470
  3510.90000    1.76144    2.69741    0.90705    0.00000   28.58850  3020.86178  111.36636    0.55750
  3511.00000    1.75956    2.70291    0.91465    0.00000   28.58850  3021.06759  111.37081    0.59962
  3511.10000    1.76828    2.70570    0.92318    0.00000   28.58850  3021.13500  111.39034    0.68370
  3511.20000    1.76214    2.70501    0.92532    0.00000   28.58850  3021.10918  111.36182    0.82305
