~VERSION INFORMATION
VERS.           2.0  :CWLS LOG ASCII STANDARD - 2.0
WRAP.           NO   :One line per depth step
~WELL INFORMATION
STRT.m                          3298.00000: START DEPTH
STOP.m                          3581.00000: STOP DEPTH
STEP.m                             0.10000: STEP
NULL.                           -999.25000: NULL VALUE
COMP.                       Siam Moeco Ltd: COMPANY
WELL.                                  A04: WELL
FLD .                               Burapa: FIELD
LOC .                                     : LOCATION
PROV.                                     : PROVINCE
UWI .                                     : UNIQUE WELL ID
SRVC.                  READ Cased Hole Ltd: SERVICE COMPANY
DATE.                           04-24-2015: DATE
~CURVE INFORMATION
#MNEM.UNIT                                   Curve Description
#------------                              ----------------------
DEPT.m                                    : curve   1    Depth
CCL.                                      : curve   2    CCL
CWH.cps                                   : curve   3    Capacitance
FDIDEN.g/cc                               : curve   4    Density
QGZT.B/D                                  : curve   5    Gas rate
QOZT.B/D                                  : curve   6    Oil rate
QP.psia                                   : curve   7    Pressure
TEMP.°C                                   : curve   8    Temperature
VAILS.M/MN                                : curve   9    Apparent velocity
~PARAMETER INFORMATION
~OTHER INFORMATION
~ASCII LOG DATA
# ...
  3369.10000    1.77298    3.28252    0.67442    0.00000  692.56750  2891.20969  108.64943   28.34385
  3369.20000    1.76877    3.28319    0.67387    0.00000  692.56750  2891.31317  108.66312   28.29295
  3369.30000    1.76452    3.28279    0.67339    0.00000  692.56750  2891.40680  108.65976   28.22236
  3369.40000    1.75998    3.28241    0.67317    0.00000  692.56750  2891.49643  108.66892   28.14850
  3369.50000    1.75840    3.28334    0.67424    0.00000  692.56750  2891.56355  108.64809   28.09548
  3369.60000    1.76813    3.28270    0.67327    0.00000  692.56750  2891.69757  108.67792   28.06486
  3369.70000    1.76860    3.28302    0.67455    0.00000  692.56750  2891.79802  108.65951   28.11256
  3369.80000    1.77366    3.28242    0.67559    0.00000  692.56750  2891.89925  108.67964   28.20556
  3369.90000    1.76798    3.28304    0.67385    0.00000  692.56750  2891.96321  108.66043   28.35184
  3370.00000    1.76653    3.28275    0.67420    0.00000  692.56750  2892.03328  108.65902   28.57071
  3370.10000    1.77939    3.28246    0.67374    0.00000  692.56750  2892.11197  108.67873   28.80835
  3370.20000    1.77155    3.28308    0.67548    0.00000  692.56750  2892.20175  108.66883   29.06476
  3370.30000    1.75713    3.28290    0.67400    0.00000  692.56750  2892.30036  108.66279   29.33047
  3370.40000    1.77538    3.28300    0.67189    0.00000  692.56750  2892.38931  108.66314   29.56478
  3370.50000    1.77084    3.28257    0.67276    0.00000  692.56750  2892.46005  108.67728   29.74154
  3370.60000    1.76928    3.28288    0.67369    0.00000  692.56750  2892.54100  108.67198   29.77850
  3370.70000    1.77007    3.28320    0.67390    0.00000  692.56750  2892.61954  108.65219   29.73454
  3370.80000    1.77001    3.28248    0.67396    0.00000  692.56750  2892.69517  108.69321   29.57547
  3370.90000    1.76915    3.28309    0.67318    0.00000  692.56750  2892.78575  108.65590   29.32990
  3371.00000    1.75961    3.28267    0.67186    0.00000  692.56750  2892.85827  108.67535   29.04458
  3371.10000    1.76639    3.28294    0.67310    0.00000  692.56750  2892.95717  108.66611   28.71245
  3371.20000    1.76983    3.28288    0.67528    0.00000  692.56750  2893.04616  108.67980   28.37270
  3371.30000    1.77539    3.28262    0.67412    0.00000  692.56750  2893.13687  108.67010   28.05586
  3371.40000    1.77032    3.28328    0.67301    0.00000  692.56750  2893.24454  108.64913   27.81818
  3371.50000    1.77801    3.28279    0.67445    0.00000  692.56750  2893.34258  108.69081   27.64694
  3371.60000    1.77895    3.28295    0.67532    0.00000  692.56750  2893.40913  108.67101   27.52092
  3371.70000    1.75296    3.28248    0.67308    0.00000  692.56750  2893.47842  108.64703   27.47247
  3371.80000    1.76191    3.28309    0.67345    0.00000  692.56750  2893.58006  108.68359   27.47373
  3371.90000    1.76784    3.28271    0.67435    0.00000  692.56750  2893.64788  108.67147   27.50222
  3372.00000    1.76195    3.28251    0.67209    0.00000  692.56750  2893.72030  108.68898   27.55166
  3372.10000    1.77678    3.28314    0.67267    0.00000  692.56750  2893.83649  108.67314   27.58597
  3372.20000    1.77275    3.28289    0.67369    0.00000  692.56750  2893.91239  108.66213   27.60495
  3372.30000    1.77598    3.28304    0.67414    0.00000  692.56750  2893.96734  108.66832   27.57436
  3372.40000    1.77785    3.28244    0.67550    0.00000  692.56750  2894.05526  108.69378   27.50554
  3372.50000    1.77506    3.28279    0.67461    0.00000  692.56750  2894.12375  108.67373   27.40797
  3372.60000    1.77355    3.28267    0.67061    0.00000  692.56750  2894.19272  108.67531   27.27155
  3372.70000    1.77503    3.28299    0.66513    0.00000  692.56750  2894.27137  108.67980   27.13634
  3372.80000    1.75757    3.28286    0.66960    0.00000  692.56750  2894.36574  108.67463   27.00422
  3372.90000    1.76235    3.28318    0.67300    0.00000  692.56750  2894.46420  108.67446   26.92124
  3373.00000    1.75957    3.28295    0.67300    0.00000  692.56750  2894.55675  108.66562   26.89073
  3373.10000    1.75967    3.28272    0.67379    0.00000  692.56750  2894.63418  108.69086   26.90853
  3373.20000    1.76084    3.28281    0.67388    0.00000  692.56750  2894.68885  108.67104   27.05089
  3373.30000    1.77564    3.28331    0.67389    0.00000  692.56750  2894.77735  108.67865   27.24741
  3373.40000    1.77169    3.28256    0.67450    0.00000  692.56750  2894.86769  108.68276   27.50212
  3373.50000    1.77544    3.28266    0.67550    0.00000  692.56750  2894.93165  108.68694   27.82660
  3373.60000    1.78141    3.28317    0.67439    0.00000  692.56750  2895.03369  108.66745   28.17523
  3373.70000    1.78174    3.28256    0.67393    0.00000  692.56750  2895.10784  108.67965   28.55087
  3373.80000    1.77951    3.28287    0.67331    0.00000  692.56750  2895.20971  108.67191   28.88241
  3373.90000    1.77369    3.28284    0.67332    0.00000  692.56750  2895.31294  108.67592   29.17594
  3374.00000    1.77486    3.28320    0.67545    0.00000  692.56750  2895.37023  108.69382   29.41850
  3374.10000    1.76595    3.28278    0.67328    0.00000  692.56750  2895.43300  108.67376   29.58309
  3374.20000    1.76927    3.28265    0.67317    0.00000  692.56750  2895.53035  108.68713   29.68981
  3374.30000    1.76425    3.28294    0.67523    0.00000  692.56750  2895.63712  108.69481   29.71289
  3374.40000    1.75732    3.28286    0.67394    0.00000  692.56750  2895.70428  108.67467   29.69573
  3374.50000    1.76632    3.28318    0.67413    0.00000  692.56750  2895.82746  108.67442   29.67078
  3374.60000    1.76801    3.28243    0.67361    0.00000  692.56750  2895.90191  108.67978   29.64531
  3374.70000    1.76708    3.28291    0.67473    0.00000  692.56750  2895.96999  108.69090   29.65333
  3374.80000    1.76564    3.28289    0.67227    0.00000  692.56750  2896.06810  108.68931   29.68867
  3374.90000    1.76893    3.28326    0.67122    0.00000  692.56750  2896.16077  108.68026   29.77253
  3375.00000    1.76016    3.28253    0.67279    0.00000  692.56750  2896.23057  108.68008   29.90455
  3375.10000    1.76509    3.28264    0.67491    0.00000  692.56750  2896.33795  108.68035   30.05915
  3375.20000    1.77378    3.28325    0.67611    0.00000  692.56750  2896.43303  108.67980   30.23738
  3375.30000    1.76680    3.28256    0.67508    0.00000  692.56750  2896.50137  108.70596   30.40229
  3375.40000    1.80679    3.28288    0.67438    0.00000  692.56750  2896.56516  108.67187   30.54825
  3375.50000    1.79825    3.28284    0.67433    0.00000  692.56750  2896.66377  108.69204   30.63958
  3375.60000    1.77400    3.28320    0.67444    0.00000  692.56750  2896.74868  108.69189   30.66203
  3375.70000    1.77250    3.28282    0.67162    0.00000  692.56750  2896.82882  108.68306   30.63542
  3375.80000    1.76894    3.28268    0.67189    0.00000  692.56750  2896.93001  108.67788   30.52115
  3375.90000    1.77123    3.28293    0.67502    0.00000  692.56750  2896.98738  108.69236   30.35374
  3376.00000    1.76732    3.28305    0.67498    0.00000  692.56750  2897.06839  108.68535   30.15294
  3376.10000    1.77178    3.28307    0.67380    0.00000  692.56750  2897.17367  108.68505   29.92517
  3376.20000    1.77592    3.28244    0.67233    0.00000  692.56750  2897.25392  108.67980   29.71653
  3376.30000    1.76587    3.28304    0.67340    0.00000  692.56750  2897.31781  108.70044   29.52780
  3376.40000    1.76525    3.28274    0.67522    0.00000  692.56750  2897.42393  108.68927   29.42023
  3376.50000    1.77144    3.28326    0.67356    0.00000  692.56750  2897.51679  108.68031   29.38086
  3376.60000    1.75867    3.28292    0.67406    0.00000  692.56750  2897.62865  108.69193   29.39969
  3376.70000    1.75994    3.28260    0.67522    0.00000  692.56750  2897.73541  108.67980   29.53368
  3376.80000    1.76660    3.28324    0.67217    0.00000  692.56750  2897.84059  108.70903   29.71459
  3376.90000    1.76231    3.28287    0.67196    0.00000  692.56750  2897.93675  108.67035   29.93852
