~VERSION INFORMATION
VERS.           2.0  :CWLS LOG ASCII STANDARD - 2.0
WRAP.           NO   :One line per depth step
~WELL INFORMATION
STRT.m                          3298.00000: START DEPTH
STOP.m                          3581.00000: STOP DEPTH
STEP.m                             0.10000: STEP
NULL.                           -999.25000: NULL VALUE
COMP.                       Siam Moeco Ltd: COMPANY
WELL.                                  A04: WELL
FLD .                               Burapa: FIELD
LOC .                                     : LOCATION
PROV.                                     : PROVINCE
UWI .                                     : UNIQUE WELL ID
SRVC.                  READ Cased Hole Ltd: SERVICE COMPANY
DATE.                           04-24-2015: DATE
~CURVE INFORMATION
#MNEM.UNIT                                   Curve Description
#------------                              ----------------------
DEPT.m                                    : curve   1    Depth
CCL.                                      : curve   2    CCL
CWH.cps                                   : curve   3    Capacitance
FDIDEN.g/cc                               : curve   4    Density
QGZT.B/D                                  : curve   5    Gas rate
QOZT.B/D                                  : curve   6    Oil rate
QP.psia                                   : curve   7    Pressure
TEMP.°C                                   : curve   8    Temperature
VAILS.M/MN                                : curve   9    Apparent velocity
~PARAMETER INFORMATION
~OTHER INFORMATION
~ASCII LOG DATA
# ...
  3558.70000    1.76687    2.67565    1.01193    0.00000    0.00000  3083.48277  112.06203    0.34400
  3558.80000    1.77969    2.67561    1.01525    0.00000    0.00000  3083.63798  112.07458    0.32406
  3558.90000    1.77874    2.67593    1.01966    0.00000    0.00000  3083.59845  112.08497    0.29775
  3559.00000    1.78013    2.67608    1.01797    0.00000    0.00000  3083.64898  112.07763    0.26597
  3559.10000    1.76845    2.67565    1.01669    0.00000    0.00000  3083.85443  112.07056    0.22268
  3559.20000    1.78732    2.67572    1.01606    0.00000    0.00000  3083.99119  112.07799    0.17502
  3559.30000    1.77281    2.67603    1.01911    0.00000    0.00000  3084.10685  112.10499    0.12334
  3559.40000    1.76563    2.67556    1.02073    0.00000    0.00000  3084.24880  112.08931    0.06502
  3559.50000    1.76824    2.67564    1.01872    0.00000    0.00000  3084.42325  112.07955    0.00538
  3559.60000    1.75328    2.67532    1.01686    0.00000    0.00000  3084.49581  112.10581   -0.05568
  3559.70000    1.76572    2.67641    1.01358    0.00000    0.00000  3084.64310  112.09259   -0.11576
  3559.80000    1.74952    2.67559    1.01047    0.00000    0.00000  3084.80890  112.09448   -0.17423
  3559.90000    1.76807    2.67561    1.01336    0.00000    0.00000  3084.85591  112.09581   -0.23070
  3560.00000    1.78800    2.67577    1.01682    0.00000    0.00000  3085.07999  112.12044   -0.28460
  3560.10000    1.77864    2.67565    1.01702    0.00000    0.00000  3085.33329  112.10501   -0.33778
  3560.20000    1.77220    2.67594    1.01548    0.00000    0.00000  3085.34251  112.11694   -0.39020
  3560.30000    1.78982    2.67494    1.01460    0.00000    0.00000  3085.41318  112.12188   -0.43994
  3560.40000    1.76342    2.67595    1.01689    0.00000    0.00000  3085.66755  112.09979   -0.48849
  3560.50000    1.75070    2.67565    1.01587    0.00000    0.00000  3085.77920  112.11882   -0.53561
  3560.60000    1.77440    2.67577    1.01510    0.00000    0.00000  3085.98417  112.12021   -0.58257
  3560.70000    1.76121    2.67552    1.01911    0.00000    0.00000  3086.15411  112.14241   -0.62918
  3560.80000    1.75069    2.67564    1.01459    0.00000    0.00000  3086.25739  112.11170   -0.67511
  3560.90000    1.74585    2.67571    1.00890    0.00000    0.00000  3086.40409  112.12568   -0.72270
  3561.00000    1.76043    2.67576    1.01374    0.00000    0.00000  3086.50085  112.14675   -0.77136
  3561.10000    1.76557    2.67565    1.01798    0.00000    0.00000  3086.61216  112.12488   -0.82171
  3561.20000    1.76382    2.67576    1.01672    0.00000    0.00000  3086.77071  112.14717   -0.87359
  3561.30000    1.77915    2.67521    1.01364    0.00000    0.00000  3086.80763  112.14600   -0.92510
  3561.40000    1.78211    2.67589    1.01635    0.00000    0.00000  3086.92184  112.13581   -0.97400
  3561.50000    1.77897    2.67565    1.01802    0.00000    0.00000  3087.02813  112.14845   -1.01894
  3561.60000    1.78526    2.67515    1.01457    0.00000    0.00000  3087.09988  112.14653   -1.06067
  3561.70000    1.77495    2.67580    1.00816    0.00000    0.00000  3087.34092  112.15290   -1.09567
  3561.80000    1.75847    2.67576    1.01059    0.00000    0.00000  3087.51058  112.14600   -1.12164
  3561.90000    1.77881    2.67566    1.01288    0.00000    0.00000  3087.53779  112.15773   -1.14107
  3562.00000    1.76935    2.67574    1.01375    0.00000    0.00000  3087.60115  112.17312   -1.14832
  3562.10000    1.75990    2.67532    1.01233    0.00000    0.00000  3087.76841  112.16928   -1.14477
  3562.20000    1.73829    2.67640    1.01727    0.00000    0.00000  3087.90706  112.15418   -1.13326
  3562.30000    1.74952    2.67520    1.01993    0.00000    0.00000  3087.93418  112.17804   -1.10786
  3562.40000    1.76260    2.67584    1.01650    0.00000    0.00000  3088.14807  112.16577   -1.07295
  3562.50000    1.78497    2.67565    1.01832    0.00000    0.00000  3088.41962  112.18210   -1.03048
  3562.60000    1.76954    2.67596    1.01876    0.00000    0.00000  3088.32955  112.18171   -0.97357
  3562.70000    1.77597    2.67575    1.01341    0.00000    0.00000  3088.53385  112.16819   -0.90684
  3562.80000    1.78685    2.67530    1.01397    0.00000    0.00000  3088.81777  112.18030   -0.83166
  3562.90000    1.77416    2.67635    1.01546    0.00000    0.00000  3088.86062  112.18566   -0.73807
  3563.00000    1.77727    2.67556    1.01460    0.00000    0.00000  3089.00479  112.19241   -0.63521
  3563.10000    1.77598    2.67539    1.01427    0.00000    0.00000  3089.23259  112.20061   -0.52385
  3563.20000    1.78147    2.67566    1.01546    0.00000    0.00000  3089.30308  112.18763   -0.39648
  3563.30000    1.75578    2.67589    1.01923    0.00000    0.00000  3089.52098  112.19376   -0.26495
  3563.40000    1.76738    2.67579    1.01698    0.00000    0.00000  3089.69222  112.21299   -0.12895
  3563.50000    1.78295    2.67565    1.01117    0.00000    0.00000  3089.72547  112.18830    0.00813
  3563.60000    1.77538    2.67595    1.01040    0.00000    0.00000  3089.88227  112.21389    0.14397
  3563.70000    1.76665    2.67573    1.01295    0.00000    0.00000  3090.13418  112.19390    0.27821
  3563.80000    1.78719    2.67516    1.01663    0.00000    0.00000  3090.22507  112.21202    0.40759
  3563.90000    1.78771    2.67575    1.01493    0.00000    0.00000  3090.36427  112.22074    0.53250
  3564.00000    1.78741    2.67573    1.01810    0.00000    0.00000  3090.54516  112.21608    0.65138
  3564.10000    1.79484    2.67598    1.02061    0.00000    0.00000  3090.62113  112.24032    0.75597
  3564.20000    1.78120    2.67568    1.01755    0.00000    0.00000  3090.64590  112.21317    0.85172
  3564.30000    1.77716    2.67538    1.01593    0.00000    0.00000  3090.83433  112.21631    0.93527
  3564.40000    1.77369    2.67561    1.01611    0.00000    0.00000  3091.04865  112.23653    0.99638
  3564.50000    1.76214    2.67603    1.01942    0.00000    0.00000  3091.02481  112.24818    1.04265
  3564.60000    1.76091    2.67565    1.01910    0.00000    0.00000  3091.13129  112.23201    1.06652
  3564.70000    1.76159    2.67575    1.01869    0.00000    0.00000  3091.44910  112.23568    1.06617
  3564.80000    1.77235    2.67514    1.01999    0.00000    0.00000  3091.55058  112.24890    1.05255
  3564.90000    1.76643    2.67592    1.01927    0.00000    0.00000  3091.50554  112.23583    1.02037
  3565.00000    1.77252    2.67565    1.01877    0.00000    0.00000  3091.65956  112.23607    0.97144
  3565.10000    1.77630    2.67578    1.01988    0.00000    0.00000  3091.92992  112.27183    0.91381
  3565.20000    1.77549    2.67569    1.01787    0.00000    0.00000  3092.07547  112.24623    0.84529
  3565.30000    1.77838    2.67528    1.01419    0.00000    0.00000  3092.05048  112.24626    0.77117
  3565.40000    1.78116    2.67571    1.01615    0.00000    0.00000  3092.26724  112.27038    0.69395
  3565.50000    1.77513    2.67575    1.02078    0.00000    0.00000  3092.44287  112.25455    0.61309
  3565.60000    1.77407    2.67591    1.02048    0.00000    0.00000  3092.61369  112.26112    0.52991
  3565.70000    1.76815    2.67567    1.01816    0.00000    0.00000  3092.76860  112.26876    0.44521
  3565.80000    1.75705    2.67556    1.01737    0.00000    0.00000  3092.83481  112.24907    0.35820
  3565.90000    1.75872    2.67543    1.01799    0.00000    0.00000  3092.99984  112.28071    0.27036
  3566.00000    1.74713    2.67568    1.01680    0.00000    0.00000  3093.24800  112.27347    0.18153
  3566.10000    1.75791    2.67570    1.01537    0.00000    0.00000  3093.27431  112.27779    0.08893
  3566.20000    1.74414    2.67590    1.01530    0.00000    0.00000  3093.32317  112.27726   -0.00331
  3566.30000    1.75577    2.67525    1.01889    0.00000    0.00000  3093.60931  112.28184   -0.09480
  3566.40000    1.78301    2.67602    1.01961    0.00000    0.00000  3093.69468  112.28342   -0.18063
  3566.50000    1.78370    2.67565    1.02019    0.00000    0.00000  3093.78956  112.27825   -0.26277
