~VERSION INFORMATION
VERS.           2.0  :CWLS LOG ASCII STANDARD - 2.0
WRAP.           NO   :One line per depth step
~WELL INFORMATION
STRT.m                          3298.00000: START DEPTH
STOP.m                          3581.00000: STOP DEPTH
STEP.m                             0.10000: STEP
NULL.                           -999.25000: NULL VALUE
COMP.                       Siam Moeco Ltd: COMPANY
WELL.                                  A04: WELL
FLD .                               Burapa: FIELD
LOC .                                     : LOCATION
PROV.                                     : PROVINCE
UWI .                                     : UNIQUE WELL ID
SRVC.                  READ Cased Hole Ltd: SERVICE COMPANY
DATE.                           04-24-2015: DATE
~CURVE INFORMATION
#MNEM.UNIT                                   Curve Description
#------------                              ----------------------
DEPT.m                                    : curve   1    Depth
CCL.                                      : curve   2    CCL
CWH.cps                                   : curve   3    Capacitance
FDIDEN.g/cc                               : curve   4    Density
QGZT.B/D                                  : curve   5    Gas rate
QOZT.B/D                                  : curve   6    Oil rate
QP.psia                                   : curve   7    Pressure
TEMP.°C                                   : curve   8    Temperature
VAILS.M/MN                                : curve   9    Apparent velocity
~PARAMETER INFORMATION
~OTHER INFORMATION
~ASCII LOG DATA
# ...
  3479.70000    1.76291    3.27656    0.70726    0.00000   28.58850  2983.40441  110.59282    0.08365
  3479.80000    1.76177    3.27677    0.70627    0.00000   28.58850  2983.51988  110.59321   -0.07955
  3479.90000    1.76838    3.27664    0.70863    0.00000   28.58850  2983.61924  110.59998   -0.22195
  3480.00000    1.77599    3.27650    0.70739    0.00000   28.58850  2983.66901  110.59139   -0.34066
  3480.10000    1.77394    3.27707    0.70864    0.00000   28.58850  2983.75485  110.60160   -0.43052
  3480.20000    1.78342    3.27669    0.70748    0.00000   28.58850  2983.85213  110.59902   -0.45603
  3480.30000    1.77465    3.27664    0.70434    0.00000   28.58850  2984.00597  110.60010   -0.45076
  3480.40000    1.77913    3.27678    0.70477    0.00000   28.58850  2984.11715  110.60207   -0.40782
  3480.50000    1.76922    3.27656    0.70619    0.00000   28.58850  2984.21467  110.60607   -0.32462
  3480.60000    1.75737    3.27658    0.70906    0.00000   28.58850  2984.33682  110.60313   -0.22969
  3480.70000    1.77154    3.27668    0.70847    0.00000   28.58850  2984.43127  110.61389   -0.12359
  3480.80000    1.76546    3.27672    0.70935    0.00000   28.58850  2984.52436  110.62107   -0.02519
  3480.90000    1.74268    3.27648    0.70712    0.00000   28.58850  2984.59482  110.61920    0.06318
  3481.00000    1.76346    3.27655    0.70550    0.00000   28.58850  2984.71265  110.60981    0.13348
  3481.10000    1.77511    3.27655    0.70920    0.00000   28.58850  2984.81721  110.63310    0.18088
  3481.20000    1.78444    3.27649    0.71087    0.00000   28.58850  2984.92905  110.62027    0.21842
  3481.30000    1.77248    3.27669    0.71006    0.00000   28.58850  2985.04162  110.63189    0.24525
  3481.40000    1.77958    3.27672    0.70859    0.00000   28.58850  2985.11703  110.62427    0.27828
  3481.50000    1.77612    3.27657    0.70945    0.00000   28.58850  2985.12793  110.63500    0.32216
  3481.60000    1.76692    3.27657    0.70939    0.00000   28.58850  2985.15822  110.63133    0.39396
  3481.70000    1.76970    3.27632    0.70896    0.00000   28.58850  2985.22723  110.65382    0.50450
  3481.80000    1.77293    3.27650    0.70673    0.00000   28.58850  2985.30681  110.63857    0.64200
  3481.90000    1.77410    3.27638    0.70821    0.00000   28.58850  2985.41981  110.63332    0.82713
  3482.00000    1.75830    3.27585    0.70894    0.00000   28.58850  2985.49306  110.66123    1.04469
  3482.10000    1.76374    3.27675    0.70743    0.00000   28.58850  2985.56133  110.63941    1.28102
  3482.20000    1.76864    3.27618    0.70872    0.00000   28.58850  2985.65357  110.65035    1.53618
  3482.30000    1.75951    3.27655    0.70755    0.00000   28.58850  2985.74330  110.66590    1.78090
  3482.40000    1.76412    3.27648    0.70916    0.00000   28.58850  2985.82030  110.65212    2.01398
  3482.50000    1.77244    3.27658    0.70792    0.00000   28.58850  2985.91414  110.67012    2.20518
  3482.60000    1.76540    3.27659    0.70776    0.00000   28.58850  2985.97863  110.64642    2.35431
  3482.70000    1.78041    3.27632    0.70806    0.00000   28.58850  2986.04579  110.67578    2.46926
  3482.80000    1.78023    3.27646    0.70871    0.00000   28.58850  2986.16200  110.65135    2.51280
  3482.90000    1.76765    3.27627    0.70977    0.00000   28.58850  2986.26493  110.68397    2.52077
  3483.00000    1.76778    3.27591    0.70752    0.00000   28.58850  2986.39690  110.67522    2.49940
  3483.10000    1.76970    3.27653    0.70886    0.00000   28.58850  2986.50096  110.67150    2.44145
  3483.20000    1.76678    3.27650    0.70752    0.00000   28.58850  2986.61897  110.65904    2.38300
  3483.30000    1.76132    3.27654    0.70814    0.00000   28.58850  2986.68870  110.68191    2.32415
  3483.40000    1.75880    3.27657    0.70726    0.00000   28.58850  2986.76507  110.69545    2.29835
  3483.50000    1.77163    3.27696    0.70790    0.00000   28.58850  2986.81920  110.67818    2.29828
  3483.60000    1.77020    3.27654    0.71050    0.00000   28.58850  2986.91436  110.68695    2.32585
  3483.70000    1.76630    3.27649    0.71068    0.00000   28.58850  2987.02763  110.69111    2.40797
  3483.80000    1.77302    3.27685    0.70791    0.00000   28.58850  2987.12671  110.69306    2.50925
  3483.90000    1.77397    3.27655    0.70685    0.00000   28.58850  2987.20565  110.68777    2.63198
  3484.00000    1.76328    3.27590    0.70841    0.00000   28.58850  2987.31482  110.68583    2.75991
  3484.10000    1.77291    3.27699    0.70623    0.00000   28.58850  2987.34074  110.70886    2.87563
  3484.20000    1.77686    3.27656    0.70762    0.00000   28.58850  2987.45431  110.70601    2.97253
  3484.30000    1.77143    3.27595    0.71061    0.00000   28.58850  2987.48334  110.70642    3.01551
  3484.40000    1.75726    3.27651    0.71054    0.00000   28.58850  2987.61675  110.70460    3.02301
  3484.50000    1.77114    3.27651    0.70539    0.00000   28.58850  2987.68493  110.71256    2.98072
  3484.60000    1.76885    3.27653    0.70156    0.00000   28.58850  2987.78272  110.70746    2.87547
  3484.70000    1.76591    3.27657    0.70617    0.00000   28.58850  2987.84205  110.73607    2.74006
  3484.80000    1.76462    3.27691    0.71017    0.00000   28.58850  2987.92240  110.70930    2.56606
  3484.90000    1.76498    3.27648    0.70904    0.00000   28.58850  2988.01524  110.72831    2.37234
  3485.00000    1.77050    3.27657    0.70630    0.00000   28.58850  2988.11926  110.71335    2.17624
  3485.10000    1.77364    3.27659    0.70774    0.00000   28.58850  2988.22301  110.73890    1.98643
  3485.20000    1.76901    3.27640    0.70599    0.00000   28.58850  2988.29165  110.72634    1.82171
  3485.30000    1.78057    3.27640    0.70707    0.00000   28.58850  2988.40149  110.73148    1.67392
  3485.40000    1.76313    3.27658    0.71051    0.00000   28.58850  2988.49593  110.73936    1.55463
  3485.50000    1.77516    3.27652    0.71066    0.00000   28.58850  2988.59608  110.74490    1.45796
  3485.60000    1.77462    3.27687    0.71006    0.00000   28.58850  2988.67890  110.73924    1.37164
  3485.70000    1.75975    3.27659    0.71010    0.00000   28.58850  2988.75775  110.73891    1.29181
  3485.80000    1.76959    3.27622    0.70665    0.00000   28.58850  2988.81056  110.73925    1.19873
  3485.90000    1.77208    3.27638    0.70637    0.00000   28.58850  2988.89885  110.76058    1.09319
  3486.00000    1.76616    3.27609    0.70979    0.00000   28.58850  2989.04843  110.73000    0.95517
  3486.10000    1.78050    3.27626    0.70960    0.00000   28.58850  2989.20420  110.75416    0.78561
  3486.20000    1.77049    3.27606    0.70900    0.00000   28.58850  2989.23566  110.75469    0.59312
  3486.30000    1.77554    3.27637    0.70867    0.00000   28.58850  2989.26156  110.77286    0.36228
  3486.40000    1.77114    3.27571    0.71053    0.00000   28.58850  2989.31553  110.74416    0.11939
  3486.50000    1.76641    3.27636    0.71022    0.00000   28.58850  2989.39348  110.77124   -0.13063
  3486.60000    1.77514    3.27611    0.70771    0.00000   28.58850  2989.48726  110.77320   -0.37121
  3486.70000    1.77198    3.27619    0.70799    0.00000   28.58850  2989.55354  110.76709   -0.58803
  3486.80000    1.76004    3.27653    0.70870    0.00000   28.58850  2989.64141  110.76905   -0.78350
  3486.90000    1.76814    3.27589    0.70738    0.00000   28.58850  2989.78430  110.78340   -0.91463
  3487.00000    1.76970    3.27617    0.70703    0.00000   28.58850  2989.88729  110.76958   -1.00635
  3487.10000    1.76483    3.27659    0.70639    0.00000   28.58850  2989.95841  110.77320   -1.06185
  3487.20000    1.75839    3.27595    0.70928    0.00000   28.58850  2990.04459  110.77065   -1.04944
  3487.30000    1.77124    3.27615    0.71020    0.00000   28.58850  2990.16503  110.80766   -1.01381
  3487.40000    1.76293    3.27604    0.70847    0.00000   28.58850  2990.22138  110.77208   -0.95325
  3487.50000    1.79074    3.27583    0.70889    0.00000   28.58850  2990.27547  110.79257   -0.87353
