~VERSION INFORMATION
VERS.           2.0  :CWLS LOG ASCII STANDARD - 2.0
WRAP.           NO   :One line per depth step
~WELL INFORMATION
STRT.m                          3298.00000: START DEPTH
STOP.m                          3581.00000: STOP DEPTH
STEP.m                             0.10000: STEP
NULL.                           -999.25000: NULL VALUE
COMP.                       Siam Moeco Ltd: COMPANY
WELL.                                  A04: WELL
FLD .                               Burapa: FIELD
LOC .                                     : LOCATION
PROV.                                     : PROVINCE
UWI .                                     : UNIQUE WELL ID
SRVC.                  READ Cased Hole Ltd: SERVICE COMPANY
DATE.                           04-24-2015: DATE
~CURVE INFORMATION
#MNEM.UNIT                                   Curve Description
#------------                              ----------------------
DEPT.m                                    : curve   1    Depth
CCL.                                      : curve   2    CCL
CWH.cps                                   : curve   3    Capacitance
FDIDEN.g/cc                               : curve   4    Density
QGZT.B/D                                  : curve   5    Gas rate
QOZT.B/D                                  : curve   6    Oil rate
QP.psia                                   : curve   7    Pressure
TEMP.°C                                   : curve   8    Temperature
VAILS.M/MN                                : curve   9    Apparent velocity
~PARAMETER INFORMATION
~OTHER INFORMATION
~ASCII LOG DATA
# ...
  3392.80000    1.77598    3.28257    0.67483    0.00000  692.56750  2910.87867  108.74442   29.13346
  3392.90000    1.76548    3.28324    0.67337    0.00000  692.56750  2910.92612  108.74121   28.95258
  3393.00000    1.76279    3.28271    0.67401    0.00000  692.56750  2911.01627  108.75236   28.80005
  3393.10000    1.76249    3.28244    0.67584    0.00000  692.56750  2911.12258  108.73093   28.71459
  3393.20000    1.76638    3.28332    0.67343    0.00000  692.56750  2911.21073  108.74768   28.66574
  3393.30000    1.76052    3.28281    0.67177    0.00000  692.56750  2911.25207  108.73669   28.66559
  3393.40000    1.76201    3.28308    0.67432    0.00000  692.56750  2911.35465  108.73719   28.70748
  3393.50000    1.78185    3.28244    0.67517    0.00000  692.56750  2911.42821  108.75551   28.75863
  3393.60000    1.78404    3.28242    0.67244    0.00000  692.56750  2911.51868  108.74532   28.81267
  3393.70000    1.77949    3.28304    0.67337    0.00000  692.56750  2911.63733  108.73527   28.83496
  3393.80000    1.77926    3.28247    0.67629    0.00000  692.56750  2911.70006  108.74763   28.82972
  3393.90000    1.76976    3.28282    0.67362    0.00000  692.56750  2911.83851  108.74327   28.77434
  3394.00000    1.77405    3.28243    0.67229    0.00000  692.56750  2911.90062  108.75147   28.65834
  3394.10000    1.76390    3.28286    0.67330    0.00000  692.56750  2911.99486  108.74654   28.50910
  3394.20000    1.77959    3.28249    0.67148    0.00000  692.56750  2912.08034  108.74840   28.31508
  3394.30000    1.77097    3.28261    0.66980    0.00000  692.56750  2912.15688  108.74840   28.10682
  3394.40000    1.75603    3.28285    0.67178    0.00000  692.56750  2912.23322  108.72955   27.89888
  3394.50000    1.76068    3.28244    0.67413    0.00000  692.56750  2912.26986  108.76406   27.71384
  3394.60000    1.75561    3.28230    0.67560    0.00000  692.56750  2912.34357  108.73907   27.57810
  3394.70000    1.75870    3.28235    0.67461    0.00000  692.56750  2912.40400  108.74790   27.48141
  3394.80000    1.78209    3.28249    0.67399    0.00000  692.56750  2912.46336  108.74840   27.46781
  3394.90000    1.77310    3.28291    0.67384    0.00000  692.56750  2912.56544  108.74759   27.51657
  3395.00000    1.76722    3.28302    0.67355    0.00000  692.56750  2912.64829  108.74776   27.60944
  3395.10000    1.77687    3.28244    0.67207    0.00000  692.56750  2912.67992  108.75553   27.76946
  3395.20000    1.76619    3.28242    0.66944    0.00000  692.56750  2912.75015  108.74840   27.95110
  3395.30000    1.76412    3.28297    0.67063    0.00000  692.56750  2912.81636  108.75297   28.14671
  3395.40000    1.76913    3.28249    0.67206    0.00000  692.56750  2912.91675  108.73979   28.33884
  3395.50000    1.76555    3.28255    0.67158    0.00000  692.56750  2912.97850  108.75027   28.51242
  3395.60000    1.76696    3.28266    0.67309    0.00000  692.56750  2913.06031  108.75560   28.66971
  3395.70000    1.78085    3.28242    0.67404    0.00000  692.56750  2913.17619  108.74924   28.78490
  3395.80000    1.75864    3.28244    0.67402    0.00000  692.56750  2913.26366  108.74076   28.88267
  3395.90000    1.77624    3.28269    0.67420    0.00000  692.56750  2913.36427  108.75206   28.96448
  3396.00000    1.78486    3.28251    0.67537    0.00000  692.56750  2913.46971  108.74969   29.03288
  3396.10000    1.76721    3.28244    0.67533    0.00000  692.56750  2913.55636  108.75338   29.10896
  3396.20000    1.76014    3.28243    0.67411    0.00000  692.56750  2913.67047  108.75841   29.19327
  3396.30000    1.76630    3.28242    0.67392    0.00000  692.56750  2913.76165  108.75671   29.31320
  3396.40000    1.78021    3.28212    0.67396    0.00000  692.56750  2913.86541  108.75560   29.45370
  3396.50000    1.76801    3.28231    0.67327    0.00000  692.56750  2913.96091  108.74921   29.61837
  3396.60000    1.78443    3.28192    0.67318    0.00000  692.56750  2914.03810  108.74550   29.80740
  3396.70000    1.76224    3.28210    0.67560    0.00000  692.56750  2914.13434  108.75555   29.99988
  3396.80000    1.75770    3.28242    0.67463    0.00000  692.56750  2914.22083  108.75070   30.19443
  3396.90000    1.78311    3.28243    0.67327    0.00000  692.56750  2914.29943  108.75105   30.36430
  3397.00000    1.75122    3.28244    0.67414    0.00000  692.56750  2914.35163  108.76775   30.51076
  3397.10000    1.75596    3.28218    0.67310    0.00000  692.56750  2914.44015  108.75375   30.62178
  3397.20000    1.77732    3.28243    0.67448    0.00000  692.56750  2914.52746  108.75250   30.67450
  3397.30000    1.75943    3.28242    0.67574    0.00000  692.56750  2914.59888  108.74926   30.69553
  3397.40000    1.75830    3.28244    0.67348    0.00000  692.56750  2914.69227  108.76865   30.67288
  3397.50000    1.78726    3.28226    0.67426    0.00000  692.56750  2914.78916  108.75308   30.61360
  3397.60000    1.76320    3.28238    0.67584    0.00000  692.56750  2914.86844  108.75256   30.53925
  3397.70000    1.75347    3.28254    0.67321    0.00000  692.56750  2914.96176  108.77823   30.44957
  3397.80000    1.77525    3.28297    0.67183    0.00000  692.56750  2915.02912  108.75159   30.36351
  3397.90000    1.74627    3.28218    0.67446    0.00000  692.56750  2915.11791  108.76564   30.28206
  3398.00000    1.74900    3.28242    0.67509    0.00000  692.56750  2915.25755  108.74889   30.21157
  3398.10000    1.76925    3.28244    0.67407    0.00000  692.56750  2915.31015  108.76065   30.14448
  3398.20000    1.75540    3.28242    0.67632    0.00000  692.56750  2915.40995  108.77845   30.07254
  3398.30000    1.75339    3.28241    0.67409    0.00000  681.84559  2915.50617  108.74843   29.97630
  3398.40000    1.78656    3.28136    0.67104    0.00000  671.12367  2915.58496  108.76514   29.84067
  3398.50000    1.77651    3.28211    0.67057    0.00000  660.40176  2915.68960  108.76223   29.67260
  3398.60000    1.76666    3.28288    0.67088    0.00000  649.67984  2915.76587  108.77156   29.43175
  3398.70000    1.79145    3.28252    0.67351    0.00000  638.95793  2915.85478  108.77399   29.10443
  3398.80000    1.76901    3.28259    0.67485    0.00000  628.23601  2915.95546  108.76782   28.71790
  3398.90000    1.75807    3.28288    0.67046    0.00000  617.51410  2916.01191  108.78534   28.25231
  3399.00000    1.79848    3.28244    0.66610    0.00000  606.79218  2916.04160  108.77153   27.74232
  3399.10000    1.76252    3.28267    0.66640    0.00000  596.07027  2916.10604  108.78532   27.19987
  3399.20000    1.73391    3.28330    0.66719    0.00000  585.34836  2916.14900  108.81171   26.62254
  3399.30000    1.78944    3.28242    0.66785    0.00000  574.62644  2916.20369  108.78710   26.04498
  3399.40000    1.76918    3.28263    0.66943    0.00000  563.90453  2916.30602  108.80944   25.46857
  3399.50000    1.73819    3.28283    0.67033    0.00000  553.18261  2916.36738  108.81279   24.92265
  3399.60000    1.78606    3.28240    0.66892    0.00000  542.46070  2916.46137  108.78553   24.39817
  3399.70000    1.77937    3.28224    0.66821    0.00000  531.73878  2916.55358  108.81693   23.89341
  3399.80000    1.74347    3.28301    0.67055    0.00000  521.01687  2916.59782  108.81123   23.43391
  3399.90000    1.77987    3.28338    0.67240    0.00000  510.29495  2916.67728  108.85140   22.97670
  3400.00000    1.76578    3.28111    0.66864    0.00000  499.57304  2916.74278  108.84172   22.52194
  3400.10000    1.74755    3.27691    0.66497    0.00000  488.85113  2916.82665  108.85388   22.03909
  3400.20000    1.77246    3.26918    0.66374    0.00000  478.12921  2916.90945  108.85289   21.52701
  3400.30000    1.76630    3.27166    0.66200    0.00000  467.40730  2916.99955  108.86556   20.97945
  3400.40000    1.74616    3.27975    0.65937    0.00000  456.68538  2917.13405  108.88570   20.35487
  3400.50000    1.81839    3.28273    0.65850    0.00000  445.96347  2917.24686  108.89376   19.69198
  3400.60000    1.78343    3.28432    0.66074    0.00000  435.24155  2917.31658  108.89193   18.98180
