~VERSION INFORMATION
VERS.           2.0  :CWLS LOG ASCII STANDARD - 2.0
WRAP.           NO   :One line per depth step
~WELL INFORMATION
STRT.m                          3298.00000: START DEPTH
STOP.m                          3581.00000: STOP DEPTH
STEP.m                             0.10000: STEP
NULL.                           -999.25000: NULL VALUE
COMP.                       Siam Moeco Ltd: COMPANY
WELL.                                  A04: WELL
FLD .                               Burapa: FIELD
LOC .                                     : LOCATION
PROV.                                     : PROVINCE
UWI .                                     : UNIQUE WELL ID
SRVC.                  READ Cased Hole Ltd: SERVICE COMPANY
DATE.                           04-24-2015: DATE
~CURVE INFORMATION
#MNEM.UNIT                                   Curve Description
#------------                              ----------------------
DEPT.m                                    : curve   1    Depth
CCL.                                      : curve   2    CCL
CWH.cps                                   : curve   3    Capacitance
FDIDEN.g/cc                               : curve   4    Density
QGZT.B/D                                  : curve   5    Gas rate
QOZT.B/D                                  : curve   6    Oil rate
QP.psia                                   : curve   7    Pressure
TEMP.°C                                   : curve   8    Temperature
VAILS.M/MN                                : curve   9    Apparent velocity
~PARAMETER INFORMATION
~OTHER INFORMATION
~ASCII LOG DATA
# ...
  3519.20000    1.77428    2.69588    0.93577    0.00000   28.58850  3031.47238  111.56260   -1.00766
  3519.30000    1.77330    2.69366    0.93392    0.00000   28.58850  3031.58178  111.57973   -1.08450
  3519.40000    1.76725    2.69401    0.93155    0.00000   28.58850  3031.71805  111.56754   -1.14456
  3519.50000    1.76367    2.69634    0.93142    0.00000   28.58850  3031.86925  111.58807   -1.18690
  3519.60000    1.76440    2.69694    0.92946    0.00000   28.58850  3031.96006  111.58100   -1.19015
  3519.70000    1.76525    2.69745    0.93028    0.00000   28.58850  3032.01628  111.56878   -1.14810
  3519.80000    1.77056    2.70306    0.93571    0.00000   28.58850  3032.11972  111.59256   -1.07749
  3519.90000    1.77458    2.70593    0.93957    0.00000   28.58850  3032.28184  111.56757   -0.96299
  3520.00000    1.77598    2.70115    0.93947    0.00000   28.58850  3032.32702  111.60748   -0.82219
  3520.10000    1.77259    2.70076    0.94206    0.00000   28.58850  3032.42465  111.58783   -0.66757
  3520.20000    1.76968    2.69990    0.94102    0.00000   28.58850  3032.53221  111.59690   -0.50492
  3520.30000    1.77007    2.69863    0.93837    0.00000   28.58850  3032.71694  111.58771   -0.35465
  3520.40000    1.77298    2.69859    0.93740    0.00000   28.58850  3032.87646  111.58683   -0.21762
  3520.50000    1.77111    2.69802    0.93514    0.00000   28.58850  3032.95274  111.60647   -0.12622
  3520.60000    1.76470    2.69745    0.92587    0.00000   28.58850  3033.08250  111.59702   -0.07347
  3520.70000    1.76346    2.69709    0.91998    0.00000   28.58850  3033.29186  111.60917   -0.05111
  3520.80000    1.76278    2.69661    0.92610    0.00000   28.58850  3033.44986  111.60681   -0.08277
  3520.90000    1.77086    2.69645    0.93144    0.00000   28.58850  3033.46654  111.59842   -0.13678
  3521.00000    1.76971    2.69907    0.93264    0.00000   28.58850  3033.57035  111.61100   -0.20870
  3521.10000    1.77144    2.70418    0.93178    0.00000   28.58850  3033.81728  111.62217   -0.29181
  3521.20000    1.77744    2.70606    0.93131    0.00000   28.58850  3033.99385  111.60152   -0.36615
  3521.30000    1.77038    2.70685    0.93076    0.00000   28.58850  3034.14965  111.62219   -0.43239
  3521.40000    1.77487    2.70441    0.93354    0.00000   28.58850  3034.38752  111.61944   -0.46079
  3521.50000    1.77553    2.70160    0.93532    0.00000   28.58850  3034.55005  111.60821   -0.46673
  3521.60000    1.77108    2.70095    0.93932    0.00000   28.58850  3034.62363  111.63314   -0.44855
  3521.70000    1.76383    2.70618    0.93495    0.00000   28.58850  3034.73878  111.62624   -0.39277
  3521.80000    1.77107    2.70656    0.92509    0.00000   28.58850  3034.88370  111.62958   -0.32522
  3521.90000    1.75931    2.70523    0.91694    0.00000   28.58850  3035.01610  111.63171   -0.24467
  3522.00000    1.76133    2.70482    0.92183    0.00000   28.58850  3035.15146  111.63273   -0.16289
  3522.10000    1.76757    2.70277    0.92867    0.00000   28.58850  3035.27114  111.62696   -0.08907
  3522.20000    1.76239    2.70231    0.93059    0.00000   28.58850  3035.33043  111.62329   -0.02727
  3522.30000    1.77260    2.69951    0.92914    0.00000   28.58850  3035.48936  111.65334    0.00492
  3522.40000    1.77422    2.70049    0.92720    0.00000   28.58850  3035.67507  111.63207    0.01964
  3522.50000    1.77484    2.70040    0.92678    0.00000   28.58850  3035.72969  111.64534    0.01054
  3522.60000    1.78344    2.70058    0.92778    0.00000   28.58850  3035.70209  111.64070   -0.01965
  3522.70000    1.77643    2.70136    0.92707    0.00000   28.58850  3035.68413  111.65883   -0.05540
  3522.80000    1.76408    2.70183    0.92594    0.00000   28.58850  3035.68285  111.65415   -0.09450
  3522.90000    1.76482    2.70211    0.92891    0.00000   28.58850  3035.88080  111.63293   -0.12543
  3523.00000    1.76030    2.70163    0.93452    0.00000   28.58850  3036.13485  111.65913   -0.14838
  3523.10000    1.76431    2.70143    0.93654    0.00000   28.58850  3036.25067  111.66802   -0.15619
  3523.20000    1.76412    2.70123    0.93793    0.00000   28.58850  3036.33423  111.63567   -0.14625
  3523.30000    1.76439    2.69915    0.94317    0.00000   28.58850  3036.48260  111.66872   -0.12600
  3523.40000    1.76484    2.69581    0.94371    0.00000   28.58850  3036.68639  111.66963   -0.09083
  3523.50000    1.76474    2.69443    0.93375    0.00000   28.58850  3036.85888  111.64895   -0.05152
  3523.60000    1.76854    2.69482    0.92553    0.00000   28.58850  3036.89596  111.66752   -0.01253
  3523.70000    1.77611    2.69277    0.92532    0.00000   28.58850  3037.00846  111.68309    0.01885
  3523.80000    1.77154    2.69276    0.93370    0.00000   28.58850  3037.33881  111.67825    0.03518
  3523.90000    1.76784    2.69157    0.94263    0.00000   28.58850  3037.49863  111.67110    0.04013
  3524.00000    1.76727    2.69018    0.94457    0.00000   28.58850  3037.61619  111.66768    0.02262
  3524.10000    1.76711    2.69018    0.93773    0.00000   28.58850  3037.78830  111.67713   -0.00900
  3524.20000    1.76770    2.69066    0.93039    0.00000   28.58850  3037.90205  111.69304   -0.04962
  3524.30000    1.75586    2.69084    0.92585    0.00000   28.58850  3038.02570  111.66803   -0.09851
  3524.40000    1.76196    2.68981    0.92082    0.00000   28.58850  3038.18875  111.69500   -0.14355
  3524.50000    1.76216    2.69108    0.92029    0.00000   28.58850  3038.18766  111.69504   -0.18408
  3524.60000    1.76532    2.69131    0.92151    0.00000   28.58850  3038.28017  111.68610   -0.20259
  3524.70000    1.77652    2.69071    0.92018    0.00000   28.58850  3038.38538  111.70146   -0.20502
  3524.80000    1.76962    2.69134    0.92020    0.00000   28.58850  3038.41517  111.70120   -0.19383
  3524.90000    1.76604    2.69388    0.91902    0.00000   28.58850  3038.52045  111.69146   -0.15747
  3525.00000    1.77552    2.69444    0.91351    0.00000   28.58850  3038.58293  111.69506   -0.11199
  3525.10000    1.76257    2.69561    0.90879    0.00000   28.58850  3038.69085  111.73267   -0.05814
  3525.20000    1.76547    2.69836    0.90932    0.00000   28.58850  3038.87083  111.70070   -0.00055
  3525.30000    1.77016    2.69945    0.91214    0.00000   28.58850  3038.89093  111.70530    0.05140
  3525.40000    1.76977    2.69768    0.91005    0.00000   28.58850  3039.01448  111.72541    0.09727
  3525.50000    1.76039    2.69823    0.90467    0.00000   28.58850  3039.08930  111.70021    0.11920
  3525.60000    1.75957    2.69726    0.90527    0.00000   28.58850  3039.22310  111.72358    0.12719
  3525.70000    1.78121    2.69660    0.90644    0.00000   28.58850  3039.38514  111.70284    0.11876
  3525.80000    1.77807    2.69660    0.90929    0.00000   28.58850  3039.57927  111.73190    0.08618
  3525.90000    1.76702    2.69582    0.90938    0.00000   28.58850  3039.66083  111.73256    0.04524
  3526.00000    1.77897    2.69462    0.90971    0.00000   28.58850  3039.83072  111.73703   -0.00511
  3526.10000    1.78393    2.69615    0.91327    0.00000   28.58850  3040.01973  111.70745   -0.05751
  3526.20000    1.77722    2.69598    0.92163    0.00000   28.58850  3040.17730  111.73366   -0.10682
  3526.30000    1.78320    2.69639    0.92603    0.00000   28.58850  3040.30598  111.73377   -0.15019
  3526.40000    1.77504    2.69932    0.92590    0.00000   28.58850  3040.47768  111.76452   -0.17820
  3526.50000    1.77145    2.69868    0.92607    0.00000   28.58850  3040.58480  111.73120   -0.19697
  3526.60000    1.78293    2.69869    0.92952    0.00000   28.58850  3040.65381  111.75812   -0.20235
  3526.70000    1.77077    2.69935    0.93510    0.00000   28.58850  3040.75362  111.73570   -0.19595
  3526.80000    1.75853    2.70038    0.93400    0.00000   28.58850  3040.91994  111.76594   -0.18536
  3526.90000    1.77325    2.69922    0.92899    0.00000   28.58850  3041.07441  111.74118   -0.17152
  3527.00000    1.77260    2.69780    0.92603    0.00000   28.58850  3041.22911  111.76729   -0.16260
