~VERSION INFORMATION
VERS.           2.0  :CWLS LOG ASCII STANDARD - 2.0
WRAP.           NO   :One line per depth step
~WELL INFORMATION
STRT.m                          3298.00000: START DEPTH
STOP.m                          3581.00000: STOP DEPTH
STEP.m                             0.10000: STEP
NULL.                           -999.25000: NULL VALUE
COMP.                       Siam Moeco Ltd: COMPANY
WELL.                                  A04: WELL
FLD .                               Burapa: FIELD
LOC .                                     : LOCATION
PROV.                                     : PROVINCE
UWI .                                     : UNIQUE WELL ID
SRVC.                  READ Cased Hole Ltd: SERVICE COMPANY
DATE.                           04-24-2015: DATE
~CURVE INFORMATION
#MNEM.UNIT                                   Curve Description
#------------                              ----------------------
DEPT.m                                    : curve   1    Depth
CCL.                                      : curve   2    CCL
CWH.cps                                   : curve   3    Capacitance
FDIDEN.g/cc                               : curve   4    Density
QGZT.B/D                                  : curve   5    Gas rate
QOZT.B/D                                  : curve   6    Oil rate
QP.psia                                   : curve   7    Pressure
TEMP.°C                                   : curve   8    Temperature
VAILS.M/MN                                : curve   9    Apparent velocity
~PARAMETER INFORMATION
~OTHER INFORMATION
~ASCII LOG DATA
# ...
  3535.00000    1.76671    2.67748    0.98577    0.00000    0.00000  3051.64277  111.61070    0.06085
  3535.10000    1.79068    2.67783    0.98611    0.00000    0.00000  3051.73945  111.60085    0.05941
  3535.20000    1.77578    2.67775    0.98841    0.00000    0.00000  3051.98508  111.58233    0.06387
  3535.30000    1.77603    2.67742    0.99224    0.00000    0.00000  3052.13947  111.61281    0.07339
  3535.40000    1.77401    2.67808    0.99208    0.00000    0.00000  3052.11752  111.59345    0.09494
  3535.50000    1.77279    2.67781    0.98992    0.00000    0.00000  3052.18945  111.59688    0.12612
  3535.60000    1.77782    2.67756    0.98761    0.00000    0.00000  3052.45750  111.59770    0.16422
  3535.70000    1.77284    2.67800    0.99018    0.00000    0.00000  3052.64974  111.58700    0.21351
  3535.80000    1.76245    2.67809    0.99294    0.00000    0.00000  3052.76893  111.58948    0.26669
  3535.90000    1.75656    2.67757    0.99279    0.00000    0.00000  3052.85959  111.58100    0.32222
  3536.00000    1.75704    2.67803    0.99029    0.00000    0.00000  3052.94378  111.59610    0.37511
  3536.10000    1.75091    2.67801    0.99109    0.00000    0.00000  3053.10592  111.59100    0.42188
  3536.20000    1.75327    2.67775    0.99355    0.00000    0.00000  3053.31577  111.58299    0.46314
  3536.30000    1.76505    2.67737    0.99679    0.00000    0.00000  3053.39685  111.58145    0.48706
  3536.40000    1.78452    2.67779    0.99623    0.00000    0.00000  3053.49691  111.59390    0.49950
  3536.50000    1.78502    2.67744    0.99694    0.00000    0.00000  3053.67632  111.58347    0.50140
  3536.60000    1.77664    2.67736    0.99828    0.00000    0.00000  3053.84447  111.58100    0.48291
  3536.70000    1.77989    2.67759    0.99527    0.00000    0.00000  3053.88614  111.58103    0.45495
  3536.80000    1.77321    2.67714    0.99402    0.00000    0.00000  3054.03331  111.57345    0.41681
  3536.90000    1.76357    2.67700    0.99338    0.00000    0.00000  3054.28070  111.59534    0.36276
  3537.00000    1.77532    2.67736    0.99510    0.00000    0.00000  3054.37717  111.58252    0.30395
  3537.10000    1.76854    2.67697    0.99588    0.00000    0.00000  3054.48374  111.58436    0.23994
  3537.20000    1.75232    2.67698    0.99803    0.00000    0.00000  3054.55551  111.59434    0.17343
  3537.30000    1.77721    2.67696    1.00059    0.00000    0.00000  3054.69108  111.56539    0.10886
  3537.40000    1.77250    2.67650    0.99654    0.00000    0.00000  3054.82421  111.58429    0.04749
  3537.50000    1.77144    2.67692    0.99629    0.00000    0.00000  3054.96797  111.59493   -0.01134
  3537.60000    1.76346    2.67669    0.99872    0.00000    0.00000  3055.15501  111.58100   -0.06869
  3537.70000    1.76938    2.67684    1.00220    0.00000    0.00000  3055.36247  111.58737   -0.12404
  3537.80000    1.77094    2.67638    1.00336    0.00000    0.00000  3055.45214  111.59062   -0.17933
  3537.90000    1.78016    2.67704    1.00018    0.00000    0.00000  3055.52597  111.59618   -0.23581
  3538.00000    1.76881    2.67666    0.99984    0.00000    0.00000  3055.70810  111.57809   -0.29478
  3538.10000    1.76633    2.67635    1.00063    0.00000    0.00000  3055.87243  111.59118   -0.35396
  3538.20000    1.77766    2.67663    1.00205    0.00000    0.00000  3056.03862  111.58127   -0.41199
  3538.30000    1.75711    2.67660    1.00302    0.00000    0.00000  3056.12327  111.60675   -0.46700
  3538.40000    1.77313    2.67644    1.00145    0.00000    0.00000  3056.26583  111.57870   -0.51482
  3538.50000    1.77170    2.67646    0.99816    0.00000    0.00000  3056.44390  111.58554   -0.55681
  3538.60000    1.76317    2.67660    1.00064    0.00000    0.00000  3056.55316  111.60465   -0.58761
  3538.70000    1.76356    2.67628    1.00511    0.00000    0.00000  3056.64917  111.58933   -0.60290
  3538.80000    1.76847    2.67689    1.00296    0.00000    0.00000  3056.73153  111.59690   -0.60773
  3538.90000    1.77796    2.67640    1.00129    0.00000    0.00000  3056.89400  111.59151   -0.59487
  3539.00000    1.76819    2.67611    1.00185    0.00000    0.00000  3057.08021  111.59717   -0.56867
  3539.10000    1.76836    2.67650    1.00205    0.00000    0.00000  3057.21963  111.60970   -0.53314
  3539.20000    1.77653    2.67607    1.00661    0.00000    0.00000  3057.24981  111.59690   -0.48156
  3539.30000    1.77006    2.67629    1.00839    0.00000    0.00000  3057.37789  111.60251   -0.42046
  3539.40000    1.76920    2.67623    1.00262    0.00000    0.00000  3057.54756  111.60098   -0.35366
  3539.50000    1.76987    2.67608    1.00167    0.00000    0.00000  3057.71413  111.60149   -0.28399
  3539.60000    1.77342    2.67598    1.00436    0.00000    0.00000  3057.85087  111.60163   -0.21515
  3539.70000    1.75934    2.67597    1.00130    0.00000    0.00000  3057.87877  111.60187   -0.14710
  3539.80000    1.74900    2.67649    1.00279    0.00000    0.00000  3057.97242  111.61043   -0.08178
  3539.90000    1.76261    2.67577    1.00537    0.00000    0.00000  3058.11442  111.61233   -0.02233
  3540.00000    1.75272    2.67590    1.00282    0.00000    0.00000  3058.31296  111.60514    0.03197
  3540.10000    1.76951    2.67643    1.00462    0.00000    0.00000  3058.54367  111.61100    0.07315
  3540.20000    1.77774    2.67599    1.00662    0.00000    0.00000  3058.70854  111.62697    0.10511
  3540.30000    1.78374    2.67587    1.00470    0.00000    0.00000  3058.70067  111.60365    0.12860
  3540.40000    1.77536    2.67583    1.00452    0.00000    0.00000  3058.72889  111.61458    0.13398
  3540.50000    1.77457    2.67571    1.00295    0.00000    0.00000  3058.89530  111.61395    0.12919
  3540.60000    1.76553    2.67578    0.99897    0.00000    0.00000  3059.06329  111.62987    0.11346
  3540.70000    1.76330    2.67593    0.99809    0.00000    0.00000  3059.21965  111.63054    0.08170
  3540.80000    1.75305    2.67604    1.00138    0.00000    0.00000  3059.35755  111.59807    0.04409
  3540.90000    1.75511    2.67565    1.00193    0.00000    0.00000  3059.51564  111.62291   -0.00008
  3541.00000    1.75512    2.67574    1.00398    0.00000    0.00000  3059.79289  111.62482   -0.05496
  3541.10000    1.75367    2.67566    1.00490    0.00000    0.00000  3059.88181  111.64090   -0.11428
  3541.20000    1.76989    2.67575    1.00330    0.00000    0.00000  3059.92000  111.63120   -0.17887
  3541.30000    1.77625    2.67546    1.00004    0.00000    0.00000  3060.04399  111.62275   -0.24608
  3541.40000    1.77353    2.67578    1.00134    0.00000    0.00000  3060.10206  111.64012   -0.31328
  3541.50000    1.77688    2.67589    0.99964    0.00000    0.00000  3060.22808  111.63387   -0.37981
  3541.60000    1.77626    2.67571    1.00557    0.00000    0.00000  3060.40757  111.64110   -0.44235
  3541.70000    1.76863    2.67516    1.00802    0.00000    0.00000  3060.51528  111.60882   -0.50083
  3541.80000    1.77866    2.67581    1.00734    0.00000    0.00000  3060.67732  111.66286   -0.55237
  3541.90000    1.78022    2.67568    1.00676    0.00000    0.00000  3060.84617  111.62970   -0.59093
  3542.00000    1.77617    2.67597    1.00587    0.00000    0.00000  3061.07332  111.65266   -0.62147
  3542.10000    1.76753    2.67504    1.00899    0.00000    0.00000  3061.25218  111.64710   -0.63974
  3542.20000    1.77101    2.67602    1.00844    0.00000    0.00000  3061.31450  111.64885   -0.64489
  3542.30000    1.79795    2.67594    1.01029    0.00000    0.00000  3061.41281  111.64504   -0.64138
  3542.40000    1.77223    2.67560    1.00924    0.00000    0.00000  3061.61110  111.64408   -0.62354
  3542.50000    1.76326    2.67555    1.00919    0.00000    0.00000  3061.66801  111.66356   -0.59409
  3542.60000    1.76464    2.67590    1.00989    0.00000    0.00000  3061.69698  111.64604   -0.55818
  3542.70000    1.76700    2.67512    1.00657    0.00000    0.00000  3061.84300  111.66536   -0.51440
  3542.80000    1.77025    2.67598    1.00566    0.00000    0.00000  3062.02623  111.65447   -0.46573
