~VERSION INFORMATION
VERS.           2.0  :CWLS LOG ASCII STANDARD - 2.0
WRAP.           NO   :One line per depth step
~WELL INFORMATION
STRT.m                          3298.00000: START DEPTH
STOP.m                          3581.00000: STOP DEPTH
STEP.m                             0.10000: STEP
NULL.                           -999.25000: NULL VALUE
COMP.                       Siam Moeco Ltd: COMPANY
WELL.                                  A04: WELL
FLD .                               Burapa: FIELD
LOC .                                     : LOCATION
PROV.                                     : PROVINCE
UWI .                                     : UNIQUE WELL ID
SRVC.                  READ Cased Hole Ltd: SERVICE COMPANY
DATE.                           04-24-2015: DATE
~CURVE INFORMATION
#MNEM.UNIT                                   Curve Description
#------------                              ----------------------
DEPT.m                                    : curve   1    Depth
CCL.                                      : curve   2    CCL
CWH.cps                                   : curve   3    Capacitance
FDIDEN.g/cc                               : curve   4    Density
QGZT.B/D                                  : curve   5    Gas rate
QOZT.B/D                                  : curve   6    Oil rate
QP.psia                                   : curve   7    Pressure
TEMP.°C                                   : curve   8    Temperature
VAILS.M/MN                                : curve   9    Apparent velocity
~PARAMETER INFORMATION
~OTHER INFORMATION
~ASCII LOG DATA
# ...
  3448.10000    1.76946    3.27379    0.70874    0.00000   28.58850  2955.88510  109.79139    1.04293
  3448.20000    1.76970    3.27389    0.70632    0.00000   28.58850  2955.94112  109.81292    1.12279
  3448.30000    1.77416    3.27362    0.70948    0.00000   28.58850  2956.04630  109.80841    1.24802
  3448.40000    1.78286    3.27380    0.71170    0.00000   28.58850  2956.17234  109.81002    1.40499
  3448.50000    1.77585    3.27372    0.71104    0.00000   28.58850  2956.27749  109.81135    1.58602
  3448.60000    1.77216    3.27390    0.70814    0.00000   28.58850  2956.37507  109.82069    1.80142
  3448.70000    1.76167    3.27374    0.70680    0.00000   28.58850  2956.42979  109.82500    2.01961
  3448.80000    1.76969    3.27445    0.70952    0.00000   28.58850  2956.51859  109.83623    2.23868
  3448.90000    1.76246    3.27315    0.70837    0.00000   28.58850  2956.59528  109.81831    2.42800
  3449.00000    1.76401    3.27429    0.70849    0.00000   28.58850  2956.71756  109.82461    2.58643
  3449.10000    1.76747    3.27363    0.70950    0.00000   28.58850  2956.78897  109.84063    2.71642
  3449.20000    1.76800    3.27463    0.70891    0.00000   28.58850  2956.93317  109.81272    2.77171
  3449.30000    1.76693    3.27375    0.70984    0.00000   28.58850  2956.95507  109.84223    2.79160
  3449.40000    1.77618    3.27401    0.70795    0.00000   28.58850  2957.00845  109.84119    2.77343
  3449.50000    1.78316    3.27374    0.70953    0.00000   28.58850  2957.07627  109.85694    2.70078
  3449.60000    1.77240    3.27403    0.70937    0.00000   28.58850  2957.18175  109.83440    2.61272
  3449.70000    1.76620    3.27425    0.71025    0.00000   28.58850  2957.24596  109.84769    2.50793
  3449.80000    1.77242    3.27371    0.70943    0.00000   28.58850  2957.30459  109.86566    2.39870
  3449.90000    1.76392    3.27378    0.70912    0.00000   28.58850  2957.42312  109.84826    2.29442
  3450.00000    1.77870    3.27417    0.70883    0.00000   28.58850  2957.51266  109.84660    2.19805
  3450.10000    1.76653    3.27404    0.70846    0.00000   28.58850  2957.58677  109.87639    2.12333
  3450.20000    1.76825    3.27453    0.71008    0.00000   28.58850  2957.68503  109.82938    2.05868
  3450.30000    1.75778    3.27374    0.70845    0.00000   28.58850  2957.77683  109.86770    2.00668
  3450.40000    1.75966    3.27445    0.71034    0.00000   28.58850  2957.88605  109.87736    1.96024
  3450.50000    1.76678    3.27368    0.71020    0.00000   28.58850  2957.96658  109.87948    1.90952
  3450.60000    1.74540    3.27412    0.70953    0.00000   28.58850  2958.05855  109.85540    1.84763
  3450.70000    1.78915    3.27458    0.70756    0.00000   28.58850  2958.12740  109.87652    1.75477
  3450.80000    1.78329    3.27394    0.70857    0.00000   28.58850  2958.20024  109.89748    1.64260
  3450.90000    1.78421    3.27414    0.71020    0.00000   28.58850  2958.34621  109.87564    1.50068
  3451.00000    1.77550    3.27405    0.71050    0.00000   28.58850  2958.45729  109.87601    1.33249
  3451.10000    1.77579    3.27391    0.71070    0.00000   28.58850  2958.57684  109.87879    1.15087
  3451.20000    1.77301    3.27450    0.71052    0.00000   28.58850  2958.62144  109.89391    0.95289
  3451.30000    1.77086    3.27426    0.70776    0.00000   28.58850  2958.68348  109.89593    0.75441
  3451.40000    1.77187    3.27393    0.70757    0.00000   28.58850  2958.78034  109.87364    0.55964
  3451.50000    1.76387    3.27448    0.70875    0.00000   28.58850  2958.83978  109.91530    0.38026
  3451.60000    1.76735    3.27405    0.70654    0.00000   28.58850  2958.99185  109.90691    0.22343
  3451.70000    1.76560    3.27471    0.70542    0.00000   28.58850  2958.97261  109.89780    0.08162
  3451.80000    1.76719    3.27397    0.70848    0.00000   28.58850  2959.11166  109.90571   -0.03688
  3451.90000    1.77232    3.27418    0.70883    0.00000   28.58850  2959.19203  109.89523   -0.13399
  3452.00000    1.76398    3.27434    0.70727    0.00000   28.58850  2959.25745  109.92441   -0.21722
  3452.10000    1.76644    3.27461    0.71002    0.00000   28.58850  2959.34934  109.91458   -0.28630
  3452.20000    1.76989    3.27423    0.70753    0.00000   28.58850  2959.48371  109.91219   -0.35214
  3452.30000    1.76309    3.27457    0.70816    0.00000   28.58850  2959.56200  109.91140   -0.41625
  3452.40000    1.76616    3.27394    0.71155    0.00000   28.58850  2959.62477  109.93761   -0.48473
  3452.50000    1.76324    3.27429    0.71071    0.00000   28.58850  2959.65954  109.92711   -0.55697
  3452.60000    1.76386    3.27423    0.70922    0.00000   28.58850  2959.74299  109.93034   -0.63186
  3452.70000    1.77161    3.27463    0.70952    0.00000   28.58850  2959.87852  109.91636   -0.70060
  3452.80000    1.76813    3.27412    0.71052    0.00000   28.58850  2959.96492  109.94668   -0.75483
  3452.90000    1.76370    3.27471    0.70669    0.00000   28.58850  2960.08287  109.93074   -0.79571
  3453.00000    1.76580    3.27381    0.70727    0.00000   28.58850  2960.13790  109.94960   -0.79096
  3453.10000    1.77271    3.27451    0.71092    0.00000   28.58850  2960.25999  109.93275   -0.75287
  3453.20000    1.75935    3.27472    0.71136    0.00000   28.58850  2960.38479  109.93758   -0.67893
  3453.30000    1.76291    3.27401    0.70962    0.00000   28.58850  2960.46625  109.94040   -0.54274
  3453.40000    1.76219    3.27466    0.70870    0.00000   28.58850  2960.55653  109.95044   -0.37868
  3453.50000    1.75807    3.27436    0.70931    0.00000   28.58850  2960.64756  109.94987   -0.18254
  3453.60000    1.76312    3.27426    0.70941    0.00000   28.58850  2960.70365  109.95259    0.05102
  3453.70000    1.77266    3.27475    0.71102    0.00000   28.58850  2960.78587  109.95831    0.28916
  3453.80000    1.77744    3.27412    0.70858    0.00000   28.58850  2960.88136  109.96478    0.52940
  3453.90000    1.77373    3.27458    0.70899    0.00000   28.58850  2961.01018  109.97514    0.74526
  3454.00000    1.76479    3.27395    0.70804    0.00000   28.58850  2961.17581  109.95853    0.93943
  3454.10000    1.77598    3.27459    0.70925    0.00000   28.58850  2961.22862  109.95504    1.10111
  3454.20000    1.76939    3.27421    0.70970    0.00000   28.58850  2961.28043  109.97774    1.21127
  3454.30000    1.76315    3.27442    0.70901    0.00000   28.58850  2961.31087  109.96017    1.29536
  3454.40000    1.76991    3.27471    0.70987    0.00000   28.58850  2961.43517  109.98579    1.34494
  3454.50000    1.75711    3.27463    0.70829    0.00000   28.58850  2961.53834  109.98355    1.37085
  3454.60000    1.75891    3.27406    0.70998    0.00000   28.58850  2961.59024  109.97142    1.39279
  3454.70000    1.76071    3.27451    0.70862    0.00000   28.58850  2961.64853  109.98962    1.41950
  3454.80000    1.77062    3.27426    0.70915    0.00000   28.58850  2961.71032  109.98579    1.46066
  3454.90000    1.77879    3.27455    0.70894    0.00000   28.58850  2961.80231  109.99278    1.51532
  3455.00000    1.77950    3.27462    0.70809    0.00000   28.58850  2961.86903  109.98430    1.59813
  3455.10000    1.77480    3.27453    0.70951    0.00000   28.58850  2961.99434  110.00036    1.70224
  3455.20000    1.77939    3.27413    0.70953    0.00000   28.58850  2962.10426  109.99627    1.81740
  3455.30000    1.77623    3.27478    0.71112    0.00000   28.58850  2962.18410  109.99921    1.94389
  3455.40000    1.76996    3.27458    0.70859    0.00000   28.58850  2962.22393  110.00765    2.06457
  3455.50000    1.76318    3.27458    0.70886    0.00000   28.58850  2962.31634  110.00792    2.17650
  3455.60000    1.75950    3.27478    0.70735    0.00000   28.58850  2962.41571  110.01801    2.25711
  3455.70000    1.75530    3.27413    0.70704    0.00000   28.58850  2962.49426  110.00412    2.29964
  3455.80000    1.76918    3.27453    0.71016    0.00000   28.58850  2962.58879  110.01808    2.31366
  3455.90000    1.76444    3.27475    0.71055    0.00000   28.58850  2962.68491  110.01800    2.27535
