~VERSION INFORMATION
VERS.           2.0  :CWLS LOG ASCII STANDARD - 2.0
WRAP.           NO   :One line per depth step
~WELL INFORMATION
STRT.m                          3298.00000: START DEPTH
STOP.m                          3581.00000: STOP DEPTH
STEP.m                             0.10000: STEP
NULL.                           -999.25000: NULL VALUE
COMP.                       Siam Moeco Ltd: COMPANY
WELL.                                  A04: WELL
FLD .                               Burapa: FIELD
LOC .                                     : LOCATION
PROV.                                     : PROVINCE
UWI .                                     : UNIQUE WELL ID
SRVC.                  READ Cased Hole Ltd: SERVICE COMPANY
DATE.                           04-24-2015: DATE
~CURVE INFORMATION
#MNEM.UNIT                                   Curve Description
#------------                              ----------------------
DEPT.m                                    : curve   1    Depth
CCL.                                      : curve   2    CCL
CWH.cps                                   : curve   3    Capacitance
FDIDEN.g/cc                               : curve   4    Density
QGZT.B/D                                  : curve   5    Gas rate
QOZT.B/D                                  : curve   6    Oil rate
QP.psia                                   : curve   7    Pressure
TEMP.°C                                   : curve   8    Temperature
VAILS.M/MN                                : curve   9    Apparent velocity
~PARAMETER INFORMATION
~OTHER INFORMATION
~ASCII LOG DATA
# ...
  3313.80000    1.75537    3.28236    0.67692    0.00000  692.56750  2845.73247  108.43905   26.07515
  3313.90000    1.76630    3.28172    0.67657    0.00000  692.56750  2845.83575  108.43430   25.89832
  3314.00000    1.76832    3.28165    0.67475    0.00000  692.56750  2845.93518  108.42427   25.74133
  3314.10000    1.76631    3.28160    0.67583    0.00000  692.56750  2846.06719  108.43875   25.60944
  3314.20000    1.77214    3.28221    0.67819    0.00000  692.56750  2846.09503  108.42962   25.52100
  3314.30000    1.77555    3.28168    0.67901    0.00000  692.56750  2846.06635  108.43001   25.46159
  3314.40000    1.78600    3.28239    0.67537    0.00000  692.56750  2846.10928  108.42500   25.45063
  3314.50000    1.78340    3.28155    0.67445    0.00000  692.56750  2846.21981  108.43916   25.47918
  3314.60000    1.77586    3.28182    0.67673    0.00000  692.56750  2846.28405  108.43114   25.52974
  3314.70000    1.78421    3.28165    0.67423    0.00000  692.56750  2846.23815  108.45175   25.60717
  3314.80000    1.76603    3.28220    0.67577    0.00000  692.56750  2846.22768  108.43614   25.69043
  3314.90000    1.76386    3.28187    0.67855    0.00000  692.56750  2846.28245  108.42500   25.77490
  3315.00000    1.76138    3.28162    0.67572    0.00000  692.56750  2846.39275  108.43710   25.85154
  3315.10000    1.75171    3.28227    0.67360    0.00000  692.56750  2846.49714  108.44126   25.91097
  3315.20000    1.75469    3.28179    0.67622    0.00000  692.56750  2846.56440  108.44140   25.95762
  3315.30000    1.76597    3.28168    0.67720    0.00000  692.56750  2846.57565  108.43618   25.98130
  3315.40000    1.77594    3.28210    0.67561    0.00000  692.56750  2846.61162  108.42715   25.99837
  3315.50000    1.78478    3.28183    0.67538    0.00000  692.56750  2846.78852  108.43390   26.01240
  3315.60000    1.77135    3.28174    0.67723    0.00000  692.56750  2846.96736  108.45936   26.04147
  3315.70000    1.78056    3.28244    0.67570    0.00000  692.56750  2847.04243  108.43879   26.09481
  3315.80000    1.78123    3.28193    0.67563    0.00000  692.56750  2847.08933  108.42958   26.16961
  3315.90000    1.77344    3.28212    0.67564    0.00000  692.56750  2847.21533  108.42909   26.30265
  3316.00000    1.77625    3.28145    0.67608    0.00000  692.56750  2847.38781  108.45139   26.46825
  3316.10000    1.76596    3.28220    0.67553    0.00000  692.56750  2847.48261  108.44367   26.66381
  3316.20000    1.76289    3.28188    0.67625    0.00000  692.56750  2847.55606  108.44577   26.93724
  3316.30000    1.75327    3.28240    0.67454    0.00000  692.56750  2847.65588  108.42655   27.20867
  3316.40000    1.75466    3.28176    0.67322    0.00000  692.56750  2847.74634  108.43912   27.47796
  3316.50000    1.76408    3.28225    0.67769    0.00000  692.56750  2847.82222  108.44751   27.71218
  3316.60000    1.76620    3.28177    0.67664    0.00000  692.56750  2847.87338  108.45318   27.91937
  3316.70000    1.77122    3.28154    0.67280    0.00000  692.56750  2847.93504  108.44173   28.09420
  3316.80000    1.75951    3.28187    0.67650    0.00000  692.56750  2848.01333  108.44148   28.15869
  3316.90000    1.76469    3.28222    0.67984    0.00000  692.56750  2848.06325  108.46231   28.18298
  3317.00000    1.78285    3.28148    0.67614    0.00000  692.56750  2848.11764  108.42970   28.16136
  3317.10000    1.77867    3.28210    0.66961    0.00000  692.56750  2848.12911  108.45494   28.09063
  3317.20000    1.75790    3.28219    0.66981    0.00000  692.56750  2848.17563  108.45580   28.00502
  3317.30000    1.78140    3.28209    0.67081    0.00000  692.56750  2848.25460  108.45480   27.90474
  3317.40000    1.77480    3.28176    0.67234    0.00000  692.56750  2848.33908  108.44419   27.81521
  3317.50000    1.77193    3.28230    0.67565    0.00000  692.56750  2848.43623  108.44519   27.74003
  3317.60000    1.77598    3.28163    0.67734    0.00000  692.56750  2848.51460  108.45422   27.69083
  3317.70000    1.75828    3.28235    0.67596    0.00000  692.56750  2848.63053  108.44319   27.67696
  3317.80000    1.76526    3.28181    0.67540    0.00000  692.56750  2848.77321  108.45500   27.68258
  3317.90000    1.77242    3.28232    0.67765    0.00000  692.56750  2848.87506  108.47175   27.71558
  3318.00000    1.76551    3.28175    0.67638    0.00000  692.56750  2848.98497  108.43912   27.76618
  3318.10000    1.77250    3.28228    0.67506    0.00000  692.56750  2849.09539  108.45365   27.82284
  3318.20000    1.77291    3.28169    0.67598    0.00000  692.56750  2849.24209  108.44396   27.88131
  3318.30000    1.76146    3.28237    0.67712    0.00000  692.56750  2849.31931  108.47134   27.93122
  3318.40000    1.77179    3.28212    0.67747    0.00000  692.56750  2849.41805  108.44205   27.97447
  3318.50000    1.76508    3.28147    0.67476    0.00000  692.56750  2849.52375  108.45477   28.00441
  3318.60000    1.76818    3.28242    0.67748    0.00000  692.56750  2849.64400  108.44250   28.02885
  3318.70000    1.76334    3.28232    0.67773    0.00000  692.56750  2849.70382  108.47007   28.05120
  3318.80000    1.76813    3.28164    0.67531    0.00000  692.56750  2849.76751  108.44426   28.07597
  3318.90000    1.77682    3.28246    0.67420    0.00000  692.56750  2849.84807  108.45282   28.11284
  3319.00000    1.76112    3.28189    0.67462    0.00000  692.56750  2849.88846  108.46109   28.16026
  3319.10000    1.76911    3.28208    0.67672    0.00000  692.56750  2849.95799  108.47079   28.23513
  3319.20000    1.77935    3.28164    0.67758    0.00000  692.56750  2849.99860  108.45575   28.33012
  3319.30000    1.77190    3.28222    0.67757    0.00000  692.56750  2850.05586  108.44938   28.44032
  3319.40000    1.77174    3.28224    0.67750    0.00000  692.56750  2850.13946  108.46560   28.57182
  3319.50000    1.77894    3.28240    0.67759    0.00000  692.56750  2850.22834  108.45850   28.70618
  3319.60000    1.76977    3.28164    0.67643    0.00000  692.56750  2850.31310  108.44536   28.84213
  3319.70000    1.76302    3.28227    0.67237    0.00000  692.56750  2850.41444  108.46188   28.96359
  3319.80000    1.76970    3.28240    0.67177    0.00000  692.56750  2850.49948  108.47511   29.06775
  3319.90000    1.77818    3.28201    0.67465    0.00000  692.56750  2850.57680  108.45295   29.15600
  3320.00000    1.75837    3.28189    0.67616    0.00000  692.56750  2850.69772  108.45987   29.20233
  3320.10000    1.76044    3.28218    0.67851    0.00000  692.56750  2850.82212  108.47290   29.22880
  3320.20000    1.77200    3.28238    0.67807    0.00000  692.56750  2850.91708  108.45500   29.23391
  3320.30000    1.75559    3.28178    0.67774    0.00000  692.56750  2851.01072  108.46035   29.20981
  3320.40000    1.76022    3.28234    0.67808    0.00000  692.56750  2851.08997  108.45927   29.17844
  3320.50000    1.77593    3.28159    0.67971    0.00000  692.56750  2851.22727  108.46890   29.13932
  3320.60000    1.77280    3.28194    0.68042    0.00000  692.56750  2851.30215  108.45500   29.10234
  3320.70000    1.77478    3.28213    0.67872    0.00000  692.56750  2851.36532  108.48273   29.06804
  3320.80000    1.77669    3.28242    0.67782    0.00000  692.56750  2851.45564  108.44292   29.03747
  3320.90000    1.77656    3.28167    0.67717    0.00000  692.56750  2851.52278  108.46759   29.01512
  3321.00000    1.77339    3.28187    0.67707    0.00000  692.56750  2851.61658  108.47179   28.99564
  3321.10000    1.76923    3.28202    0.67979    0.00000  692.56750  2851.66170  108.45725   28.97928
  3321.20000    1.77244    3.28228    0.68004    0.00000  692.56750  2851.77527  108.48199   28.95734
  3321.30000    1.77340    3.28185    0.67985    0.00000  692.56750  2851.82637  108.46192   28.92885
  3321.40000    1.76688    3.28168    0.67876    0.00000  692.56750  2851.86579  108.46645   28.88878
  3321.50000    1.77125    3.28214    0.67990    0.00000  692.56750  2851.91320  108.48364   28.83312
  3321.60000    1.75945    3.28205    0.68133    0.00000  692.56750  2852.01268  108.46553   28.76987
