~VERSION INFORMATION
VERS.           2.0  :CWLS LOG ASCII STANDARD - 2.0
WRAP.           NO   :One line per depth step
~WELL INFORMATION
STRT.m                          3298.00000: START DEPTH
STOP.m                          3581.00000: STOP DEPTH
STEP.m                             0.10000: STEP
NULL.                           -999.25000: NULL VALUE
COMP.                       Siam Moeco Ltd: COMPANY
WELL.                                  A04: WELL
FLD .                               Burapa: FIELD
LOC .                                     : LOCATION
PROV.                                     : PROVINCE
UWI .                                     : UNIQUE WELL ID
SRVC.                  READ Cased Hole Ltd: SERVICE COMPANY
DATE.                           04-24-2015: DATE
~CURVE INFORMATION
#MNEM.UNIT                                   Curve Description
#------------                              ----------------------
DEPT.m                                    : curve   1    Depth
CCL.                                      : curve   2    CCL
CWH.cps                                   : curve   3    Capacitance
FDIDEN.g/cc                               : curve   4    Density
QGZT.B/D                                  : curve   5    Gas rate
QOZT.B/D                                  : curve   6    Oil rate
QP.psia                                   : curve   7    Pressure
TEMP.°C                                   : curve   8    Temperature
VAILS.M/MN                                : curve   9    Apparent velocity
~PARAMETER INFORMATION
~OTHER INFORMATION
~ASCII LOG DATA
# ...
  3353.30000    1.76961    3.28283    0.67625    0.00000  692.56750  2878.40505  108.60643   26.75631
  3353.40000    1.77213    3.28310    0.67535    0.00000  692.56750  2878.48576  108.58243   26.86260
  3353.50000    1.77130    3.28252    0.67369    0.00000  692.56750  2878.60050  108.61829   27.00978
  3353.60000    1.76417    3.28322    0.67470    0.00000  692.56750  2878.71473  108.59713   27.21968
  3353.70000    1.75158    3.28257    0.67463    0.00000  692.56750  2878.78981  108.60045   27.47101
  3353.80000    1.75575    3.28328    0.67310    0.00000  692.56750  2878.86525  108.60550   27.75380
  3353.90000    1.77192    3.28275    0.67323    0.00000  692.56750  2878.94724  108.61635   28.01723
  3354.00000    1.77326    3.28256    0.67486    0.00000  692.56750  2879.01825  108.60739   28.25936
  3354.10000    1.77949    3.28324    0.67550    0.00000  692.56750  2879.12422  108.57674   28.48179
  3354.20000    1.77431    3.28265    0.67394    0.00000  692.56750  2879.22077  108.61316   28.60269
  3354.30000    1.77345    3.28309    0.67182    0.00000  692.56750  2879.28007  108.61106   28.69824
  3354.40000    1.77317    3.28250    0.67000    0.00000  692.56750  2879.31027  108.59072   28.76654
  3354.50000    1.76624    3.28304    0.67252    0.00000  692.56750  2879.34620  108.60647   28.80662
  3354.60000    1.76378    3.28290    0.67564    0.00000  692.56750  2879.39718  108.62358   28.84582
  3354.70000    1.77430    3.28322    0.67683    0.00000  692.56750  2879.50474  108.58700   28.88530
  3354.80000    1.76283    3.28251    0.67222    0.00000  692.56750  2879.59554  108.60718   28.94904
  3354.90000    1.75876    3.28289    0.67305    0.00000  692.56750  2879.68955  108.61538   29.03014
  3355.00000    1.76607    3.28292    0.67546    0.00000  692.56750  2879.77856  108.60667   29.13402
  3355.10000    1.75884    3.28251    0.67590    0.00000  692.56750  2879.87160  108.61714   29.25885
  3355.20000    1.77077    3.28322    0.67497    0.00000  692.56750  2879.93991  108.60463   29.38434
  3355.30000    1.76970    3.28285    0.67294    0.00000  692.56750  2879.97729  108.61344   29.50608
  3355.40000    1.77993    3.28211    0.67282    0.00000  692.56750  2880.03270  108.60530   29.59222
  3355.50000    1.78313    3.28301    0.67499    0.00000  692.56750  2880.13442  108.60718   29.64864
  3355.60000    1.78095    3.28297    0.67453    0.00000  692.56750  2880.25622  108.61607   29.65658
  3355.70000    1.77286    3.28246    0.67427    0.00000  692.56750  2880.34528  108.61150   29.59652
  3355.80000    1.77557    3.28306    0.67383    0.00000  692.56750  2880.46923  108.60682   29.49735
  3355.90000    1.77243    3.28284    0.67200    0.00000  692.56750  2880.62174  108.62505   29.34134
  3356.00000    1.75754    3.28320    0.66945    0.00000  692.56750  2880.74036  108.59418   29.14597
  3356.10000    1.74793    3.28261    0.67204    0.00000  692.56750  2880.80102  108.61793   28.93525
  3356.20000    1.76130    3.28316    0.67416    0.00000  692.56750  2880.91027  108.62496   28.71499
  3356.30000    1.76400    3.28253    0.67359    0.00000  692.56750  2880.98155  108.60530   28.51352
  3356.40000    1.77072    3.28322    0.67406    0.00000  692.56750  2881.04730  108.61134   28.32968
  3356.50000    1.76063    3.28271    0.67304    0.00000  692.56750  2881.10917  108.61209   28.18689
  3356.60000    1.77553    3.28267    0.67347    0.00000  692.56750  2881.16124  108.62958   28.08237
  3356.70000    1.78250    3.28344    0.67497    0.00000  692.56750  2881.24894  108.61791   28.00187
  3356.80000    1.77475    3.28277    0.67510    0.00000  692.56750  2881.32985  108.61054   27.95337
  3356.90000    1.77120    3.28268    0.67667    0.00000  692.56750  2881.40303  108.61346   27.90123
  3357.00000    1.77592    3.28295    0.67547    0.00000  692.56750  2881.45011  108.60569   27.84101
  3357.10000    1.77026    3.28308    0.67202    0.00000  692.56750  2881.50728  108.63255   27.73710
  3357.20000    1.76818    3.28304    0.67189    0.00000  692.56750  2881.56994  108.60898   27.58382
  3357.30000    1.76042    3.28249    0.67496    0.00000  692.56750  2881.59637  108.61848   27.38747
  3357.40000    1.74783    3.28304    0.67448    0.00000  692.56750  2881.64682  108.62760   27.07451
  3357.50000    1.75587    3.28281    0.67224    0.00000  692.56750  2881.76114  108.61307   26.72227
  3357.60000    1.76690    3.28339    0.67402    0.00000  692.56750  2881.84244  108.63834   26.33798
  3357.70000    1.77358    3.28263    0.67597    0.00000  692.56750  2881.90657  108.62108   25.92094
  3357.80000    1.77019    3.28316    0.67308    0.00000  692.56750  2882.01701  108.62436   25.53577
  3357.90000    1.76885    3.28253    0.67274    0.00000  692.56750  2882.12080  108.60774   25.17995
  3358.00000    1.77596    3.28318    0.67517    0.00000  692.56750  2882.18679  108.62038   24.90705
  3358.10000    1.77394    3.28242    0.67393    0.00000  692.56750  2882.30450  108.62158   24.69239
  3358.20000    1.77217    3.28315    0.67237    0.00000  692.56750  2882.39578  108.63717   24.54033
  3358.30000    1.77250    3.28248    0.67341    0.00000  692.56750  2882.49013  108.61795   24.51237
  3358.40000    1.76527    3.28312    0.66987    0.00000  692.56750  2882.59694  108.62067   24.53482
  3358.50000    1.77303    3.28306    0.67049    0.00000  692.56750  2882.70711  108.62285   24.61474
  3358.60000    1.76970    3.28242    0.67441    0.00000  692.56750  2882.79617  108.64526   24.74647
  3358.70000    1.76772    3.28268    0.67588    0.00000  692.56750  2882.89262  108.61110   24.88303
  3358.80000    1.75710    3.28273    0.67375    0.00000  692.56750  2882.99332  108.62911   25.02026
  3358.90000    1.76875    3.28336    0.67158    0.00000  692.56750  2883.08267  108.63054   25.11339
  3359.00000    1.76917    3.28257    0.67288    0.00000  692.56750  2883.10882  108.62313   25.17548
  3359.10000    1.77245    3.28265    0.67393    0.00000  692.56750  2883.21446  108.62158   25.19328
  3359.20000    1.76135    3.28327    0.67392    0.00000  692.56750  2883.28124  108.64141   25.15722
  3359.30000    1.77459    3.28239    0.67396    0.00000  692.56750  2883.33502  108.61298   25.10081
  3359.40000    1.77393    3.28312    0.67486    0.00000  692.56750  2883.40349  108.63540   25.02284
  3359.50000    1.77670    3.28258    0.67558    0.00000  692.56750  2883.46986  108.61552   24.95472
  3359.60000    1.77372    3.28256    0.67425    0.00000  692.56750  2883.57438  108.62237   24.90548
  3359.70000    1.76513    3.28296    0.67372    0.00000  692.56750  2883.61153  108.63027   24.89811
  3359.80000    1.76078    3.28282    0.67297    0.00000  692.56750  2883.67397  108.62945   24.95856
  3359.90000    1.75917    3.28244    0.67310    0.00000  692.56750  2883.77174  108.63429   25.06289
  3360.00000    1.75765    3.28243    0.67454    0.00000  692.56750  2883.85670  108.62900   25.23830
  3360.10000    1.76526    3.28278    0.67488    0.00000  692.56750  2883.89919  108.63851   25.45969
  3360.20000    1.76684    3.28242    0.67510    0.00000  692.56750  2883.94860  108.61121   25.70899
  3360.30000    1.76139    3.28243    0.67569    0.00000  692.56750  2884.06871  108.63860   25.99856
  3360.40000    1.77552    3.28243    0.67367    0.00000  692.56750  2884.15059  108.62877   26.25770
  3360.50000    1.78020    3.28244    0.67234    0.00000  692.56750  2884.21603  108.63443   26.48982
  3360.60000    1.77614    3.28285    0.67243    0.00000  692.56750  2884.30632  108.64294   26.65565
  3360.70000    1.78301    3.28243    0.67549    0.00000  692.56750  2884.41265  108.62164   26.73075
  3360.80000    1.77726    3.28244    0.67499    0.00000  692.56750  2884.50865  108.64431   26.74329
  3360.90000    1.76311    3.28285    0.67344    0.00000  692.56750  2884.59451  108.61297   26.66976
  3361.00000    1.76714    3.28243    0.67184    0.00000  692.56750  2884.66973  108.64042   26.55764
  3361.10000    1.76613    3.28321    0.66806    0.00000  692.56750  2884.77489  108.64364   26.41888
