~VERSION INFORMATION
VERS.           2.0  :CWLS LOG ASCII STANDARD - 2.0
WRAP.           NO   :One line per depth step
~WELL INFORMATION
STRT.m                          3298.00000: START DEPTH
STOP.m                          3581.00000: STOP DEPTH
STEP.m                             0.10000: STEP
NULL.                           -999.25000: NULL VALUE
COMP.                       Siam Moeco Ltd: COMPANY
WELL.                                  A04: WELL
FLD .                               Burapa: FIELD
LOC .                                     : LOCATION
PROV.                                     : PROVINCE
UWI .                                     : UNIQUE WELL ID
SRVC.                  READ Cased Hole Ltd: SERVICE COMPANY
DATE.                           04-24-2015: DATE
~CURVE INFORMATION
#MNEM.UNIT                                   Curve Description
#------------                              ----------------------
DEPT.m                                    : curve   1    Depth
CCL.                                      : curve   2    CCL
CWH.cps                                   : curve   3    Capacitance
FDIDEN.g/cc                               : curve   4    Density
QGZT.B/D                                  : curve   5    Gas rate
QOZT.B/D                                  : curve   6    Oil rate
QP.psia                                   : curve   7    Pressure
TEMP.°C                                   : curve   8    Temperature
VAILS.M/MN                                : curve   9    Apparent velocity
~PARAMETER INFORMATION
~OTHER INFORMATION
~ASCII LOG DATA
  3298.00000 -999.25000 -999.25000 -999.25000 -999.25000 -999.25000 -999.25000 -999.25000 -999.25000
  3298.10000    1.76973 -999.25000 -999.25000 -999.25000 -999.25000 -999.25000 -999.25000 -999.25000
  3298.20000    1.77007 -999.25000 -999.25000 -999.25000 -999.25000  2829.74414 -999.25000 -999.25000
  3298.30000    1.76924 -999.25000 -999.25000 -999.25000 -999.25000  2829.72456 -999.25000 -999.25000
  3298.40000    1.76891 -999.25000 -999.25000 -999.25000 -999.25000  2829.72908 -999.25000 -999.25000
  3298.50000    1.76965 -999.25000 -999.25000 -999.25000 -999.25000  2829.72434 -999.25000 -999.25000
  3298.60000    1.76994 -999.25000 -999.25000 -999.25000 -999.25000  2829.72895 -999.25000 -999.25000
  3298.70000    1.76897 -999.25000 -999.25000 -999.25000 -999.25000  2829.73016 -999.25000 -999.25000
  3298.80000    1.76889 -999.25000 -999.25000 -999.25000 -999.25000  2829.71766 -999.25000 -999.25000
  3298.90000    1.76891 -999.25000 -999.25000 -999.25000 -999.25000  2829.71781 -999.25000 -999.25000
  3299.00000    1.76925 -999.25000 -999.25000 -999.25000 -999.25000  2829.70307 -999.25000 -999.25000
  3299.10000    1.76926 -999.25000 -999.25000 -999.25000 -999.25000  2829.71646 -999.25000 -999.25000
  3299.20000    1.76836 -999.25000 -999.25000 -999.25000 -999.25000  2829.70796 -999.25000 -999.25000
  3299.30000    1.76870 -999.25000 -999.25000 -999.25000 -999.25000  2829.70214 -999.25000 -999.25000
  3299.40000    1.76810 -999.25000 -999.25000 -999.25000 -999.25000  2829.71675 -999.25000 -999.25000
  3299.50000    1.76961 -999.25000 -999.25000 -999.25000 -999.25000  2829.70432 -999.25000 -999.25000
  3299.60000    1.76984 -999.25000 -999.25000 -999.25000 -999.25000  2829.71486 -999.25000 -999.25000
  3299.70000    1.76809 -999.25000 -999.25000 -999.25000 -999.25000  2829.71330 -999.25000 -999.25000
  3299.80000    1.76879 -999.25000 -999.25000 -999.25000 -999.25000  2829.71507 -999.25000 -999.25000
  3299.90000    1.76988 -999.25000 -999.25000 -999.25000 -999.25000  2829.71651 -999.25000 -999.25000
  3300.00000    1.76970 -999.25000 -999.25000 -999.25000 -999.25000  2829.71956 -999.25000 -999.25000
  3300.10000    1.76986 -999.25000    0.69929 -999.25000 -999.25000  2829.88925 -999.25000 -999.25000
  3300.20000    1.77023 -999.25000    0.67614 -999.25000 -999.25000  2830.03588 -999.25000 -999.25000
  3300.30000    1.75679 -999.25000    0.67616 -999.25000 -999.25000  2830.19739 -999.25000 -999.25000
  3300.40000    1.75668 -999.25000    0.67630 -999.25000 -999.25000  2830.57284 -999.25000 -999.25000
  3300.50000    1.77044 -999.25000    0.67657 -999.25000 -999.25000  2830.83448 -999.25000 -999.25000
  3300.60000    1.76285 -999.25000    0.67544 -999.25000 -999.25000  2831.14673 -999.25000 -999.25000
  3300.70000    1.76992 -999.25000    0.67473 -999.25000 -999.25000  2831.59651 -999.25000 -999.25000
  3300.80000    1.76396 -999.25000    0.67647 -999.25000 -999.25000  2832.06668 -999.25000 -999.25000
  3300.90000    1.76223 -999.25000    0.67710 -999.25000 -999.25000  2832.37059 -999.25000 -999.25000
  3301.00000    1.77621    3.28183    0.67600 -999.25000 -999.25000  2832.85139  108.36856 -999.25000
  3301.10000    1.77277    3.28195    0.67539 -999.25000 -999.25000  2833.30076  108.36488 -999.25000
  3301.20000    1.77384    3.28192    0.67573 -999.25000 -999.25000  2833.59428  108.36949 -999.25000
  3301.30000    1.78374    3.28191    0.67470 -999.25000 -999.25000  2833.90858  108.35446 -999.25000
  3301.40000    1.77999    3.28172    0.67484 -999.25000 -999.25000  2834.44668  108.36834 -999.25000
  3301.50000    1.77327    3.28208    0.67563 -999.25000 -999.25000  2834.66827  108.37037 -999.25000
  3301.60000    1.76260    3.28199    0.67561 -999.25000 -999.25000  2834.89281  108.35253 -999.25000
  3301.70000    1.77066    3.28174    0.67503 -999.25000 -999.25000  2835.13234  108.38085 -999.25000
  3301.80000    1.77379    3.28173    0.67584 -999.25000 -999.25000  2835.30353  108.36084 -999.25000
  3301.90000    1.77059    3.28214    0.67618 -999.25000 -999.25000  2835.30224  108.36659 -999.25000
  3302.00000    1.77410    3.28181    0.67634 -999.25000 -999.25000  2835.18956  108.36882 -999.25000
  3302.10000    1.77234    3.28183    0.67505 -999.25000 -999.25000  2835.20283  108.37001 -999.25000
  3302.20000    1.76913    3.28162    0.67619 -999.25000 -999.25000  2835.13122  108.34731 -999.25000
  3302.30000    1.77622    3.28216    0.67470 -999.25000 -999.25000  2835.12503  108.37189 -999.25000
  3302.40000    1.77000    3.28182    0.67558 -999.25000 -999.25000  2835.19841  108.37007 -999.25000
  3302.50000    1.77214    3.28203    0.67867 -999.25000 -999.25000  2835.38478  108.36877 -999.25000
  3302.60000    1.77683    3.28159    0.67681 -999.25000 -999.25000  2835.43217  108.36819 -999.25000
  3302.70000    1.77455    3.28218    0.67457 -999.25000 -999.25000  2835.77259  108.36077 -999.25000
  3302.80000    1.77676    3.28176    0.67727 -999.25000 -999.25000  2836.04517  108.36924 -999.25000
  3302.90000    1.74537    3.28213    0.67856 -999.25000 -999.25000  2836.24992  108.37225 -999.25000
  3303.00000    1.77210    3.28166    0.67681 -999.25000 -999.25000  2836.55264  108.36449 -999.25000
  3303.10000    1.76515    3.28166    0.67444 -999.25000 -999.25000  2836.88145  108.35506 -999.25000
  3303.20000    1.75969    3.28243    0.67497 -999.25000 -999.25000  2837.24571  108.37198 -999.25000
  3303.30000    1.75628    3.28162    0.67749 -999.25000 -999.25000  2837.39910  108.36369 -999.25000
  3303.40000    1.77235    3.28182    0.67491 -999.25000 -999.25000  2837.65112  108.37647 -999.25000
  3303.50000    1.76524    3.28211    0.67361 -999.25000 -999.25000  2837.94238  108.36180 -999.25000
  3303.60000    1.78556    3.28135    0.67406 -999.25000 -999.25000  2838.15002  108.37166 -999.25000
  3303.70000    1.77527    3.28195    0.67470 -999.25000 -999.25000  2838.27601  108.36787 -999.25000
  3303.80000    1.77439    3.28216    0.67888 -999.25000 -999.25000  2838.39229  108.37487 -999.25000
  3303.90000    1.77098    3.28231    0.67865 -999.25000 -999.25000  2838.50950  108.35153 -999.25000
  3304.00000    1.77517    3.28183    0.67669 -999.25000 -999.25000  2838.44566  108.37905 -999.25000
  3304.10000    1.76959    3.28214    0.67506 -999.25000 -999.25000  2838.44531  108.37750 -999.25000
  3304.20000    1.76235    3.28243    0.67461 -999.25000 -999.25000  2838.48825  108.37270 -999.25000
  3304.30000    1.76592    3.28213    0.67523 -999.25000 -999.25000  2838.49283  108.36951 -999.25000
  3304.40000    1.75063    3.28181    0.67687 -999.25000 -999.25000  2838.41509  108.37052 -999.25000
  3304.50000    1.76710    3.28241    0.67716 -999.25000 -999.25000  2838.28348  108.37143 -999.25000
  3304.60000    1.77252    3.28214    0.67565 -999.25000 -999.25000  2838.29877  108.37380 -999.25000
  3304.70000    1.78041    3.28232    0.67572 -999.25000 -999.25000  2838.37257  108.37920 -999.25000
  3304.80000    1.75753    3.28217    0.67726 -999.25000 -999.25000  2838.38300  108.37336 -999.25000
  3304.90000    1.77880    3.28173    0.67670 -999.25000 -999.25000  2838.48901  108.37737 -999.25000
  3305.00000    1.77474    3.28230    0.67505 -999.25000 -999.25000  2838.57232  108.38276 -999.25000
  3305.10000    1.76475    3.28246    0.67623 -999.25000 -999.25000  2838.63607  108.37198 -999.25000
  3305.20000    1.77148    3.28211    0.67564 -999.25000 -999.25000  2838.69390  108.37248 -999.25000
  3305.30000    1.77172    3.28231    0.67399 -999.25000 -999.25000  2838.90570  108.38105 -999.25000
  3305.40000    1.76223    3.28244    0.67739    0.00000  692.56750  2839.06101  108.37681   29.98722
  3305.50000    1.76631    3.28215    0.67746    0.00000  692.56750  2839.19982  108.39490   29.90071
  3305.60000    1.76056    3.28231    0.67598    0.00000  692.56750  2839.35809  108.38449   29.76209
  3305.70000    1.75946    3.28171    0.67632    0.00000  692.56750  2839.47427  108.37762   29.58760
  3305.80000    1.76750    3.28282    0.67594    0.00000  692.56750  2839.65068  108.36771   29.41495
