~VERSION INFORMATION
VERS.           2.0  :CWLS LOG ASCII STANDARD - 2.0
WRAP.           NO   :One line per depth step
~WELL INFORMATION
STRT.m                          3298.00000: START DEPTH
STOP.m                          3581.00000: STOP DEPTH
STEP.m                             0.10000: STEP
NULL.                           -999.25000: NULL VALUE
COMP.                       Siam Moeco Ltd: COMPANY
WELL.                                  A04: WELL
FLD .                               Burapa: FIELD
LOC .                                     : LOCATION
PROV.                                     : PROVINCE
UWI .                                     : UNIQUE WELL ID
SRVC.                  READ Cased Hole Ltd: SERVICE COMPANY
DATE.                           04-24-2015: DATE
~CURVE INFORMATION
#MNEM.UNIT                                   Curve Description
#------------                              ----------------------
DEPT.m                                    : curve   1    Depth
CCL.                                      : curve   2    CCL
CWH.cps                                   : curve   3    Capacitance
FDIDEN.g/cc                               : curve   4    Density
QGZT.B/D                                  : curve   5    Gas rate
QOZT.B/D                                  : curve   6    Oil rate
QP.psia                                   : curve   7    Pressure
TEMP.°C                                   : curve   8    Temperature
VAILS.M/MN                                : curve   9    Apparent velocity
~PARAMETER INFORMATION
~OTHER INFORMATION
~ASCII LOG DATA
# ...
  3424.40000    1.76825    3.28584    0.65019    0.00000  166.12150  2935.86706  109.33180    8.32920
  3424.50000    1.75321    3.28521    0.64616    0.00000  166.12150  2935.93959  109.32753    8.30500
  3424.60000    1.77160    3.28555    0.64639    0.00000  166.12150  2935.96195  109.31138    8.30438
  3424.70000    1.75325    3.28545    0.64584    0.00000  166.12150  2936.02556  109.33223    8.34627
  3424.80000    1.75075    3.28601    0.64731    0.00000  166.12150  2936.06683  109.33336    8.41893
  3424.90000    1.75174    3.28502    0.64998    0.00000  166.12150  2936.15269  109.32714    8.54852
  3425.00000    1.78088    3.28540    0.64645    0.00000  166.12150  2936.29215  109.31778    8.71995
  3425.10000    1.77052    3.28574    0.64605    0.00000  166.12150  2936.35264  109.32651    8.91671
  3425.20000    1.76886    3.28535    0.64937    0.00000  166.12150  2936.42442  109.31845    9.14354
  3425.30000    1.75971    3.28566    0.64736    0.00000  166.12150  2936.49994  109.33518    9.37018
  3425.40000    1.71631    3.28536    0.64779    0.00000  166.12150  2936.55927  109.33093    9.59278
  3425.50000    1.83815    3.28534    0.64994    0.00000  166.12150  2936.66429  109.33160    9.78703
  3425.60000    1.80759    3.28561    0.64852    0.00000  166.12150  2936.75111  109.32180    9.94674
  3425.70000    1.78308    3.28519    0.64606    0.00000  166.12150  2936.84704  109.32220   10.07934
  3425.80000    1.78195    3.28548    0.64883    0.00000  166.12150  2936.94597  109.32723   10.16419
  3425.90000    1.77275    3.28544    0.65029    0.00000  166.12150  2937.08174  109.33073   10.23085
  3426.00000    1.77230    3.28558    0.64614    0.00000  166.12150  2937.20870  109.32936   10.28318
  3426.10000    1.76882    3.28520    0.64705    0.00000  166.12150  2937.31158  109.33313   10.33169
  3426.20000    1.76491    3.28541    0.64978    0.00000  166.12150  2937.41916  109.33105   10.39562
  3426.30000    1.76762    3.28561    0.64680    0.00000  166.12150  2937.52661  109.32904   10.47377
  3426.40000    1.76303    3.28533    0.64743    0.00000  166.12150  2937.60290  109.33180   10.60179
  3426.50000    1.77638    3.28504    0.64994    0.00000  166.12150  2937.66307  109.33770   10.75646
  3426.60000    1.76113    3.28530    0.64500    0.00000  166.12150  2937.71054  109.32670   10.93977
  3426.70000    1.76179    3.28535    0.64173    0.00000  166.12150  2937.74829  109.33519   11.15938
  3426.80000    1.77478    3.28572    0.64724    0.00000  166.12150  2937.77857  109.33180   11.38294
  3426.90000    1.77218    3.28539    0.64834    0.00000  166.12150  2937.83957  109.33010   11.60967
  3427.00000    1.77216    3.28517    0.64685    0.00000  166.12150  2937.88617  109.32670   11.80448
  3427.10000    1.77774    3.28499    0.64930    0.00000  166.12150  2937.94857  109.33819   11.96718
  3427.20000    1.77057    3.28538    0.65063    0.00000  166.12150  2938.01379  109.33851   12.08614
  3427.30000    1.77225    3.28540    0.64907    0.00000  166.12150  2938.05478  109.34221   12.11867
  3427.40000    1.77845    3.28503    0.64566    0.00000  166.12150  2938.07318  109.32724   12.10530
  3427.50000    1.76598    3.28544    0.64724    0.00000  166.12150  2938.15581  109.33323   12.03141
  3427.60000    1.77079    3.28522    0.64621    0.00000  166.12150  2938.22046  109.33247   11.89602
  3427.70000    1.76846    3.28564    0.64651    0.00000  166.12150  2938.31644  109.35164   11.73824
  3427.80000    1.76686    3.28511    0.65000    0.00000  166.12150  2938.43480  109.31647   11.55764
  3427.90000    1.76569    3.28542    0.64937    0.00000  166.12150  2938.54242  109.35181   11.38504
  3428.00000    1.76916    3.28473    0.64583    0.00000  166.12150  2938.65452  109.32948   11.22741
  3428.10000    1.76141    3.28578    0.64709    0.00000  166.12150  2938.78259  109.32767   11.10285
  3428.20000    1.77249    3.28474    0.64961    0.00000  166.12150  2938.87343  109.33599   11.02825
  3428.30000    1.77349    3.28516    0.64897    0.00000  166.12150  2938.99330  109.34936   10.98429
  3428.40000    1.76695    3.28533    0.64602    0.00000  166.12150  2939.07940  109.33171   10.98742
  3428.50000    1.77211    3.28478    0.64776    0.00000  166.12150  2939.19556  109.32838   11.02060
  3428.60000    1.77231    3.28477    0.64949    0.00000  166.12150  2939.27621  109.33623   11.06531
  3428.70000    1.77136    3.28547    0.64913    0.00000  166.12150  2939.37862  109.35588   11.10980
  3428.80000    1.76563    3.28508    0.64681    0.00000  166.12150  2939.45404  109.32806   11.12721
  3428.90000    1.76293    3.28514    0.64745    0.00000  166.12150  2939.56707  109.33580   11.12130
  3429.00000    1.77422    3.28443    0.64939    0.00000  166.12150  2939.67308  109.36322   11.06012
  3429.10000    1.76105    3.28539    0.64655    0.00000  166.12150  2939.70944  109.32670   10.95128
  3429.20000    1.76813    3.28499    0.64425    0.00000  166.12150  2939.76649  109.33290   10.80865
  3429.30000    1.76621    3.28447    0.64485    0.00000  166.12150  2939.79874  109.36149   10.61404
  3429.40000    1.76825    3.28523    0.64752    0.00000  166.12150  2939.83844  109.33531   10.40244
  3429.50000    1.77420    3.28480    0.64596    0.00000  166.12150  2939.88774  109.34310   10.18049
  3429.60000    1.78051    3.28499    0.64623    0.00000  166.12150  2939.93116  109.33589    9.96847
  3429.70000    1.76877    3.28539    0.65025    0.00000  166.12150  2939.99418  109.35436    9.78155
  3429.80000    1.77512    3.28461    0.64986    0.00000  166.12150  2940.03258  109.34212    9.61675
  3429.90000    1.77354    3.28465    0.64685    0.00000  166.12150  2940.09042  109.34203    9.51081
  3430.00000    1.76975    3.28499    0.64823    0.00000  166.12150  2940.16278  109.33897    9.43873
  3430.10000    1.76884    3.28487    0.64980    0.00000  166.12150  2940.18431  109.34855    9.39776
  3430.20000    1.76735    3.28457    0.64786    0.00000  166.12150  2940.27654  109.34773    9.40723
  3430.30000    1.76279    3.28495    0.64538    0.00000  166.12150  2940.32314  109.33956    9.42510
  3430.40000    1.76216    3.28444    0.64867    0.00000  166.12150  2940.43011  109.35576    9.45202
  3430.50000    1.76563    3.28448    0.65086    0.00000  166.12150  2940.56206  109.34948    9.46463
  3430.60000    1.76064    3.28469    0.64859    0.00000  166.12150  2940.68725  109.33704    9.45803
  3430.70000    1.76902    3.28442    0.64594    0.00000  166.12150  2940.75652  109.35825    9.42789
  3430.80000    1.77244    3.28400    0.64924    0.00000  166.12150  2940.89146  109.34699    9.35705
  3430.90000    1.77680    3.28401    0.65070    0.00000  166.12150  2941.00631  109.33357    9.27049
  3431.00000    1.77388    3.28433    0.64770    0.00000  166.12150  2941.12339  109.36240    9.16566
  3431.10000    1.76875    3.28437    0.64597    0.00000  166.12150  2941.26158  109.34681    9.05351
  3431.20000    1.77805    3.28426    0.64934    0.00000  166.12150  2941.33532  109.35670    8.94814
  3431.30000    1.75718    3.28344    0.65161    0.00000  166.12150  2941.42829  109.33232    8.85642
  3431.40000    1.76323    3.28423    0.65131    0.00000  166.12150  2941.53986  109.34936    8.80221
  3431.50000    1.75612    3.28456    0.64832    0.00000  166.12150  2941.61599  109.35955    8.77222
  3431.60000    1.76286    3.28340    0.64453    0.00000  166.12150  2941.73763  109.33211    8.77838
  3431.70000    1.76300    3.28414    0.64692    0.00000  166.12150  2941.81945  109.36060    8.81937
  3431.80000    1.76817    3.28366    0.64684    0.00000  166.12150  2941.88874  109.34519    8.87493
  3431.90000    1.77980    3.28437    0.64830    0.00000  166.12150  2941.92727  109.36075    8.94570
  3432.00000    1.76397    3.28336    0.64880    0.00000  166.12150  2941.98233  109.35900    9.00624
  3432.10000    1.77293    3.28310    0.64589    0.00000  166.12150  2941.96225  109.34903    9.05301
  3432.20000    1.76689    3.28250    0.64668    0.00000  166.12150  2941.97873  109.35670    9.06663
