~VERSION INFORMATION
VERS.           2.0  :CWLS LOG ASCII STANDARD - 2.0
WRAP.           NO   :One line per depth step
~WELL INFORMATION
STRT.m                          3298.00000: START DEPTH
STOP.m                          3581.00000: STOP DEPTH
STEP.m                             0.10000: STEP
NULL.                           -999.25000: NULL VALUE
COMP.                       Siam Moeco Ltd: COMPANY
WELL.                                  A04: WELL
FLD .                               Burapa: FIELD
LOC .                                     : LOCATION
PROV.                                     : PROVINCE
UWI .                                     : UNIQUE WELL ID
SRVC.                  READ Cased Hole Ltd: SERVICE COMPANY
DATE.                           04-24-2015: DATE
~CURVE INFORMATION
#MNEM.UNIT                                   Curve Description
#------------                              ----------------------
DEPT.m                                    : curve   1    Depth
CCL.                                      : curve   2    CCL
CWH.cps                                   : curve   3    Capacitance
FDIDEN.g/cc                               : curve   4    Density
QGZT.B/D                                  : curve   5    Gas rate
QOZT.B/D                                  : curve   6    Oil rate
QP.psia                                   : curve   7    Pressure
TEMP.°C                                   : curve   8    Temperature
VAILS.M/MN                                : curve   9    Apparent velocity
~PARAMETER INFORMATION
~OTHER INFORMATION
~ASCII LOG DATA
# ...
  3337.50000    1.77202    3.28168    0.67629    0.00000  692.56750  2864.92138  108.54492   29.92669
  3337.60000    1.77563    3.28243    0.67327    0.00000  692.56750  2864.96365  108.53684   29.92864
  3337.70000    1.77326    3.28278    0.67389    0.00000  692.56750  2865.05179  108.54231   29.88879
  3337.80000    1.77158    3.28217    0.67396    0.00000  692.56750  2865.10972  108.55824   29.78342
  3337.90000    1.77777    3.28234    0.67335    0.00000  692.56750  2865.17130  108.53541   29.65101
  3338.00000    1.77876    3.28233    0.67420    0.00000  692.56750  2865.29232  108.54410   29.50398
  3338.10000    1.77599    3.28244    0.67479    0.00000  692.56750  2865.34338  108.55854   29.36024
  3338.20000    1.76389    3.28234    0.67401    0.00000  692.56750  2865.37379  108.54160   29.23938
  3338.30000    1.76595    3.28263    0.67332    0.00000  692.56750  2865.41175  108.54028   29.13802
  3338.40000    1.75848    3.28218    0.67465    0.00000  692.56750  2865.51417  108.53385   29.08549
  3338.50000    1.75658    3.28238    0.67652    0.00000  692.56750  2865.69920  108.54845   29.06126
  3338.60000    1.76069    3.28261    0.67520    0.00000  692.56750  2865.86172  108.54876   29.06038
  3338.70000    1.76555    3.28265    0.67545    0.00000  692.56750  2866.01462  108.54949   29.08886
  3338.80000    1.76864    3.28216    0.67569    0.00000  692.56750  2866.12008  108.54520   29.11893
  3338.90000    1.77547    3.28231    0.67403    0.00000  692.56750  2866.29202  108.55202   29.15041
  3339.00000    1.77989    3.28238    0.67348    0.00000  692.56750  2866.45576  108.53535   29.16167
  3339.10000    1.78455    3.28242    0.67614    0.00000  692.56750  2866.64003  108.55792   29.15869
  3339.20000    1.77634    3.28264    0.67629    0.00000  692.56750  2866.77879  108.54157   29.14041
  3339.30000    1.77798    3.28232    0.67469    0.00000  692.56750  2866.91239  108.54911   29.09833
  3339.40000    1.76915    3.28244    0.67217    0.00000  692.56750  2867.02536  108.54573   29.05543
  3339.50000    1.76170    3.28232    0.67439    0.00000  692.56750  2867.12493  108.54353   29.01268
  3339.60000    1.76296    3.28231    0.67444    0.00000  692.56750  2867.26734  108.55602   29.00083
  3339.70000    1.76773    3.28244    0.67390    0.00000  692.56750  2867.35621  108.54597   29.01928
  3339.80000    1.76153    3.28258    0.67455    0.00000  692.56750  2867.44637  108.53771   29.07891
  3339.90000    1.76781    3.28242    0.67528    0.00000  692.56750  2867.49845  108.55092   29.21535
  3340.00000    1.77915    3.28241    0.67301    0.00000  692.56750  2867.53232  108.54520   29.39173
  3340.10000    1.79304    3.28236    0.67267    0.00000  692.56750  2867.53040  108.56690   29.62036
  3340.20000    1.78063    3.28231    0.67392    0.00000  692.56750  2867.54938  108.55563   29.89252
  3340.30000    1.77598    3.28244    0.67556    0.00000  692.56750  2867.60792  108.53588   30.17289
  3340.40000    1.77907    3.28287    0.67666    0.00000  692.56750  2867.68101  108.57043   30.45338
  3340.50000    1.77684    3.28228    0.67407    0.00000  692.56750  2867.74190  108.55170   30.69654
  3340.60000    1.76035    3.28235    0.67229    0.00000  692.56750  2867.81934  108.54600   30.90682
  3340.70000    1.76285    3.28244    0.67357    0.00000  692.56750  2867.93176  108.54493   31.05684
  3340.80000    1.76398    3.28243    0.67486    0.00000  692.56750  2868.03763  108.54925   31.12591
  3340.90000    1.76630    3.28219    0.67667    0.00000  692.56750  2868.12478  108.57077   31.14566
  3341.00000    1.76043    3.28278    0.67584    0.00000  692.56750  2868.20790  108.54250   31.09013
  3341.10000    1.76674    3.28217    0.67399    0.00000  692.56750  2868.33450  108.55392   30.98788
  3341.20000    1.76717    3.28242    0.67274    0.00000  692.56750  2868.44512  108.55363   30.86426
  3341.30000    1.76972    3.28244    0.67152    0.00000  692.56750  2868.55919  108.54513   30.72732
  3341.40000    1.76952    3.28280    0.67341    0.00000  692.56750  2868.69358  108.55499   30.61022
  3341.50000    1.77513    3.28243    0.67538    0.00000  692.56750  2868.82947  108.56409   30.51245
  3341.60000    1.77809    3.28242    0.67432    0.00000  692.56750  2868.92839  108.54559   30.46681
  3341.70000    1.76895    3.28244    0.67394    0.00000  692.56750  2869.05357  108.55222   30.46673
  3341.80000    1.77026    3.28243    0.67480    0.00000  692.56750  2869.11452  108.56723   30.49752
  3341.90000    1.76456    3.28287    0.67540    0.00000  692.56750  2869.16365  108.54730   30.56756
  3342.00000    1.77069    3.28244    0.67407    0.00000  692.56750  2869.21589  108.57007   30.63827
  3342.10000    1.76765    3.28243    0.67385    0.00000  692.56750  2869.26513  108.55024   30.70575
  3342.20000    1.76160    3.28242    0.67388    0.00000  692.56750  2869.33367  108.57293   30.73204
  3342.30000    1.76186    3.28286    0.67327    0.00000  692.56750  2869.39206  108.55786   30.71232
  3342.40000    1.76946    3.28243    0.67112    0.00000  692.56750  2869.43660  108.55590   30.65263
  3342.50000    1.77471    3.28219    0.66920    0.00000  692.56750  2869.45838  108.55360   30.49937
  3342.60000    1.76308    3.28336    0.67206    0.00000  692.56750  2869.52210  108.57575   30.30077
  3342.70000    1.76691    3.28243    0.67646    0.00000  692.56750  2869.58362  108.55612   30.06053
  3342.80000    1.76684    3.28221    0.67475    0.00000  692.56750  2869.63831  108.56502   29.76603
  3342.90000    1.76965    3.28326    0.67575    0.00000  692.56750  2869.67290  108.57481   29.46991
  3343.00000    1.77411    3.28242    0.67365    0.00000  692.56750  2869.75456  108.55177   29.17206
  3343.10000    1.76980    3.28243    0.67301    0.00000  692.56750  2869.84997  108.55578   28.91783
  3343.20000    1.76700    3.28244    0.67515    0.00000  692.56750  2869.93529  108.55738   28.69958
  3343.30000    1.77022    3.28253    0.67396    0.00000  692.56750  2870.01752  108.57647   28.52460
  3343.40000    1.76144    3.28268    0.67591    0.00000  692.56750  2870.12749  108.55929   28.42499
  3343.50000    1.76891    3.28242    0.67604    0.00000  692.56750  2870.23830  108.57188   28.35664
  3343.60000    1.76515    3.28244    0.67415    0.00000  692.56750  2870.32933  108.56170   28.32532
  3343.70000    1.76642    3.28267    0.67367    0.00000  692.56750  2870.42766  108.57610   28.31096
  3343.80000    1.76860    3.28255    0.67262    0.00000  692.56750  2870.49973  108.57530   28.28826
  3343.90000    1.76700    3.28239    0.67149    0.00000  692.56750  2870.62562  108.54659   28.24683
  3344.00000    1.77484    3.28226    0.67285    0.00000  692.56750  2870.72260  108.56846   28.15143
  3344.10000    1.77123    3.28242    0.67386    0.00000  692.56750  2870.81379  108.56714   28.00822
  3344.20000    1.77958    3.28336    0.67424    0.00000  692.56750  2870.89102  108.57583   27.78566
  3344.30000    1.76952    3.28244    0.67550    0.00000  692.56750  2871.00058  108.56019   27.51015
  3344.40000    1.77134    3.28277    0.67465    0.00000  692.56750  2871.06674  108.56026   27.20967
  3344.50000    1.76708    3.28246    0.67391    0.00000  692.56750  2871.10819  108.57433   26.87888
  3344.60000    1.76332    3.28242    0.67377    0.00000  692.56750  2871.16336  108.57179   26.58304
  3344.70000    1.75936    3.28243    0.67340    0.00000  692.56750  2871.24551  108.56950   26.31126
  3344.80000    1.76167    3.28290    0.67447    0.00000  692.56750  2871.29388  108.57544   26.08062
  3344.90000    1.77002    3.28244    0.67520    0.00000  692.56750  2871.34933  108.57174   25.90918
  3345.00000    1.77130    3.28243    0.67314    0.00000  692.56750  2871.41814  108.56838   25.77842
  3345.10000    1.76925    3.28286    0.67341    0.00000  692.56750  2871.51237  108.57554   25.71834
  3345.20000    1.76886    3.28242    0.67395    0.00000  692.56750  2871.57168  108.57193   25.70275
  3345.30000    1.77468    3.28284    0.67499    0.00000  692.56750  2871.64821  108.56558   25.71286
