~VERSION INFORMATION
VERS.           2.0  :CWLS LOG ASCII STANDARD - 2.0
WRAP.           NO   :One line per depth step
~WELL INFORMATION
STRT.m                          3298.00000: START DEPTH
STOP.m                          3581.00000: STOP DEPTH
STEP.m                             0.10000: STEP
NULL.                           -999.25000: NULL VALUE
COMP.                       Siam Moeco Ltd: COMPANY
WELL.                                  A04: WELL
FLD .                               Burapa: FIELD
LOC .                                     : LOCATION
PROV.                                     : PROVINCE
UWI .                                     : UNIQUE WELL ID
SRVC.                  READ Cased Hole Ltd: SERVICE COMPANY
DATE.                           04-24-2015: DATE
~CURVE INFORMATION
#MNEM.UNIT                                   Curve Description
#------------                              ----------------------
DEPT.m                                    : curve   1    Depth
CCL.                                      : curve   2    CCL
CWH.cps                                   : curve   3    Capacitance
FDIDEN.g/cc                               : curve   4    Density
QGZT.B/D                                  : curve   5    Gas rate
QOZT.B/D                                  : curve   6    Oil rate
QP.psia                                   : curve   7    Pressure
TEMP.°C                                   : curve   8    Temperature
VAILS.M/MN                                : curve   9    Apparent velocity
~PARAMETER INFORMATION
~OTHER INFORMATION
~ASCII LOG DATA
# ...
  3408.60000    1.77173    3.28544    0.64486    0.00000  166.12150  2923.25251  109.25958    7.02907
  3408.70000    1.76950    3.28589    0.64668    0.00000  166.12150  2923.34273  109.24552    7.07857
  3408.80000    1.77977    3.28543    0.64690    0.00000  166.12150  2923.44646  109.26030    7.09898
  3408.90000    1.76616    3.28559    0.64807    0.00000  166.12150  2923.54375  109.23949    7.08125
  3409.00000    1.76826    3.28575    0.64602    0.00000  166.12150  2923.63839  109.26464    7.04278
  3409.10000    1.77519    3.28562    0.64632    0.00000  166.12150  2923.68676  109.25341    6.97545
  3409.20000    1.76357    3.28554    0.64945    0.00000  166.12150  2923.79513  109.26643    6.89361
  3409.30000    1.77178    3.28595    0.64768    0.00000  166.12150  2923.85271  109.25080    6.80855
  3409.40000    1.76730    3.28568    0.64728    0.00000  166.12150  2923.93181  109.25430    6.72762
  3409.50000    1.76576    3.28501    0.64691    0.00000  166.12150  2924.02017  109.24895    6.66365
  3409.60000    1.77486    3.28597    0.64561    0.00000  166.12150  2924.08589  109.26499    6.61221
  3409.70000    1.77383    3.28587    0.64909    0.00000  166.12150  2924.17344  109.26554    6.58446
  3409.80000    1.76777    3.28541    0.64816    0.00000  166.12150  2924.25270  109.23154    6.57192
  3409.90000    1.76970    3.28545    0.64566    0.00000  166.12150  2924.34100  109.28601    6.56770
  3410.00000    1.76941    3.28565    0.64645    0.00000  166.12150  2924.44844  109.25851    6.56986
  3410.10000    1.77255    3.28580    0.64545    0.00000  166.12150  2924.51362  109.26660    6.56344
  3410.20000    1.76667    3.28576    0.64830    0.00000  166.12150  2924.58362  109.25120    6.54798
  3410.30000    1.76661    3.28582    0.64913    0.00000  166.12150  2924.63775  109.26485    6.50189
  3410.40000    1.76290    3.28554    0.64593    0.00000  166.12150  2924.70485  109.26389    6.42705
  3410.50000    1.76687    3.28585    0.64648    0.00000  166.12150  2924.79495  109.26464    6.32956
  3410.60000    1.76641    3.28570    0.64529    0.00000  166.12150  2924.85265  109.26890    6.19130
  3410.70000    1.77327    3.28609    0.64375    0.00000  166.12150  2924.95497  109.24690    6.03944
  3410.80000    1.76750    3.28582    0.64525    0.00000  166.12150  2925.00188  109.26644    5.87724
  3410.90000    1.77380    3.28552    0.64908    0.00000  166.12150  2925.08005  109.26876    5.72104
  3411.00000    1.76747    3.28618    0.64842    0.00000  166.12150  2925.15536  109.27058    5.58344
  3411.10000    1.76471    3.28535    0.64465    0.00000  166.12150  2925.23545  109.26326    5.46298
  3411.20000    1.76409    3.28611    0.64760    0.00000  166.12150  2925.30491  109.27486    5.40300
  3411.30000    1.77104    3.28595    0.64883    0.00000  166.12150  2925.36084  109.26718    5.37684
  3411.40000    1.77162    3.28541    0.64647    0.00000  166.12150  2925.42474  109.26443    5.38704
  3411.50000    1.77634    3.28604    0.64858    0.00000  166.12150  2925.52865  109.26942    5.45550
  3411.60000    1.77329    3.28595    0.64819    0.00000  166.12150  2925.63078  109.28143    5.54286
  3411.70000    1.76300    3.28585    0.64496    0.00000  166.12150  2925.71673  109.25763    5.65120
  3411.80000    1.77405    3.28626    0.64425    0.00000  166.12150  2925.82258  109.26514    5.76584
  3411.90000    1.76544    3.28586    0.64542    0.00000  166.12150  2925.90567  109.28050    5.87191
  3412.00000    1.76404    3.28574    0.64640    0.00000  166.12150  2925.95190  109.26590    5.96443
  3412.10000    1.76710    3.28657    0.64541    0.00000  166.12150  2926.04169  109.27741    6.01722
  3412.20000    1.77061    3.28564    0.64816    0.00000  166.12150  2926.12544  109.26660    6.04710
  3412.30000    1.76879    3.28618    0.64870    0.00000  166.12150  2926.22234  109.28920    6.04597
  3412.40000    1.75740    3.28587    0.64648    0.00000  166.12150  2926.31431  109.27802    6.01762
  3412.50000    1.76765    3.28602    0.64873    0.00000  166.12150  2926.41282  109.26441    5.98392
  3412.60000    1.76576    3.28573    0.64796    0.00000  166.12150  2926.45519  109.27469    5.94971
  3412.70000    1.76304    3.28629    0.64465    0.00000  166.12150  2926.49762  109.28360    5.94207
  3412.80000    1.77267    3.28585    0.64435    0.00000  166.12150  2926.56355  109.27416    5.95808
  3412.90000    1.73402    3.28597    0.64658    0.00000  166.12150  2926.66002  109.26526    6.01759
  3413.00000    1.80521    3.28582    0.64945    0.00000  166.12150  2926.70448  109.29414    6.13074
  3413.10000    1.77900    3.28620    0.64634    0.00000  166.12150  2926.78586  109.26677    6.27629
  3413.20000    1.76843    3.28612    0.64643    0.00000  166.12150  2926.84826  109.27214    6.47087
  3413.30000    1.76738    3.28548    0.64985    0.00000  166.12150  2926.91300  109.29301    6.69302
  3413.40000    1.77068    3.28647    0.64757    0.00000  166.12150  2926.98880  109.27177    6.92558
  3413.50000    1.76907    3.28582    0.64583    0.00000  166.12150  2927.08825  109.28848    7.15735
  3413.60000    1.76468    3.28595    0.64606    0.00000  166.12150  2927.17272  109.26912    7.36024
  3413.70000    1.77276    3.28538    0.64544    0.00000  166.12150  2927.23141  109.29554    7.53834
  3413.80000    1.76557    3.28604    0.64742    0.00000  166.12150  2927.29793  109.28078    7.65780
  3413.90000    1.76151    3.28633    0.64606    0.00000  166.12150  2927.36967  109.28006    7.72537
  3414.00000    1.77095    3.28574    0.64819    0.00000  166.12150  2927.43912  109.29568    7.75550
  3414.10000    1.76212    3.28572    0.64932    0.00000  166.12150  2927.54292  109.26893    7.72439
  3414.20000    1.76236    3.28567    0.64624    0.00000  166.12150  2927.65651  109.27692    7.66998
  3414.30000    1.76285    3.28629    0.64765    0.00000  166.12150  2927.76721  109.29683    7.60020
  3414.40000    1.77057    3.28605    0.64682    0.00000  166.12150  2927.82185  109.28690    7.53068
  3414.50000    1.76394    3.28564    0.64649    0.00000  166.12150  2927.92357  109.28334    7.48197
  3414.60000    1.76466    3.28585    0.64931    0.00000  166.12150  2928.01496  109.28022    7.45199
  3414.70000    1.77328    3.28611    0.64784    0.00000  166.12150  2928.05186  109.28900    7.47953
  3414.80000    1.77366    3.28561    0.64711    0.00000  166.12150  2928.12082  109.28123    7.53933
  3414.90000    1.76351    3.28624    0.64729    0.00000  166.12150  2928.22549  109.29737    7.62876
  3415.00000    1.77370    3.28592    0.64511    0.00000  166.12150  2928.27973  109.27952    7.76363
  3415.10000    1.76599    3.28608    0.64794    0.00000  166.12150  2928.34120  109.28132    7.90544
  3415.20000    1.76820    3.28557    0.64788    0.00000  166.12150  2928.44086  109.29283    8.05470
  3415.30000    1.77891    3.28626    0.64607    0.00000  166.12150  2928.53653  109.29559    8.18265
  3415.40000    1.77449    3.28603    0.64846    0.00000  166.12150  2928.58663  109.28077    8.28637
  3415.50000    1.77558    3.28597    0.64622    0.00000  166.12150  2928.66648  109.28007    8.36056
  3415.60000    1.76943    3.28553    0.64700    0.00000  166.12150  2928.73901  109.29663    8.37212
  3415.70000    1.77378    3.28614    0.64905    0.00000  166.12150  2928.77421  109.28666    8.35451
  3415.80000    1.76332    3.28550    0.64701    0.00000  166.12150  2928.85528  109.28709    8.30141
  3415.90000    1.75290    3.28583    0.64776    0.00000  166.12150  2928.98185  109.29662    8.21690
  3416.00000    1.75698    3.28620    0.64682    0.00000  166.12150  2929.06390  109.27572    8.12685
  3416.10000    1.75645    3.28557    0.64654    0.00000  166.12150  2929.15925  109.30118    8.03442
  3416.20000    1.77562    3.28580    0.64940    0.00000  166.12150  2929.25623  109.29668    7.96195
  3416.30000    1.77807    3.28595    0.64793    0.00000  166.12150  2929.34782  109.27982    7.90509
  3416.40000    1.76439    3.28578    0.64705    0.00000  166.12150  2929.44138  109.29111    7.87323
